[
  {
    "id": "node/13877100",
    "nombre": "P3 Ruta 68 - Costanera Norte",
    "tramo": "N/A",
    "lat": -33.4387137,
    "lng": -70.7831378,
    "km": 0,
    "tipo": "toll_gantry",
    "sentido": "",
    "tags": {
      "@id": "node/13877100",
      "highway": "toll_gantry",
      "name": "P3 Ruta 68 - Costanera Norte",
      "ref": "P3"
    },
    "autopista": "Costanera Norte",
    "color": "#3182CE"
  },
  {
    "id": "node/13881069",
    "nombre": "P14 Guanaco - El Salto",
    "tramo": "N/A",
    "lat": -33.3886039,
    "lng": -70.6333164,
    "km": 0,
    "tipo": "toll_gantry",
    "sentido": "",
    "tags": {
      "@id": "node/13881069",
      "highway": "toll_gantry",
      "name": "P14 Guanaco - El Salto",
      "ref": "P14"
    },
    "autopista": "Autopista Central",
    "color": "#E53E3E"
  },
  {
    "id": "node/157288624",
    "nombre": "PA32 - Las Acacias - Lo Blanco",
    "tramo": "N/A",
    "lat": -33.5588804,
    "lng": -70.7105862,
    "km": 0,
    "tipo": "toll_gantry",
    "sentido": "",
    "tags": {
      "@id": "node/157288624",
      "highway": "toll_gantry",
      "name": "PA32 - Las Acacias - Lo Blanco",
      "ref": "PA32"
    },
    "autopista": "Vespucio Norte/Sur",
    "color": "#805AD5"
  },
  {
    "id": "node/253434286",
    "nombre": "P00 Puente Padre Arteaga - Puente San Francisco",
    "tramo": "N/A",
    "lat": -33.3710033,
    "lng": -70.52258,
    "km": 0,
    "tipo": "toll_gantry",
    "sentido": "",
    "tags": {
      "@id": "node/253434286",
      "highway": "toll_gantry",
      "name": "P00 Puente Padre Arteaga - Puente San Francisco",
      "ref": "P00"
    },
    "autopista": "Autopista Central",
    "color": "#E53E3E"
  },
  {
    "id": "node/285899561",
    "nombre": "PA28 - Río Mapocho - Ruta 5 Norte",
    "tramo": "N/A",
    "lat": -33.3822386,
    "lng": -70.6955624,
    "km": 0,
    "tipo": "toll_gantry",
    "sentido": "",
    "tags": {
      "@id": "node/285899561",
      "highway": "toll_gantry",
      "name": "PA28 - Río Mapocho - Ruta 5 Norte",
      "ref": "PA28"
    },
    "autopista": "Vespucio Norte/Sur",
    "color": "#805AD5"
  },
  {
    "id": "node/288057884",
    "nombre": "PA16 - Río Mapocho - 14 de la Fama - Américo Vespucio Norte",
    "tramo": "N/A",
    "lat": -33.4171865,
    "lng": -70.6787232,
    "km": 0,
    "tipo": "toll_gantry",
    "sentido": "",
    "tags": {
      "@id": "node/288057884",
      "highway": "toll_gantry",
      "name": "PA16 - Río Mapocho - 14 de la Fama - Américo Vespucio Norte",
      "ref": "PA16"
    },
    "autopista": "Vespucio Norte/Sur",
    "color": "#805AD5"
  },
  {
    "id": "node/335626019",
    "nombre": "PA2 - Los Guindos - La Capilla",
    "tramo": "N/A",
    "lat": -33.6473389,
    "lng": -70.7116107,
    "km": 0,
    "tipo": "toll_gantry",
    "sentido": "",
    "tags": {
      "@id": "node/335626019",
      "highway": "toll_gantry",
      "name": "PA2 - Los Guindos - La Capilla",
      "ref": "PA2"
    },
    "autopista": "Vespucio Norte/Sur",
    "color": "#805AD5"
  },
  {
    "id": "node/382079878",
    "nombre": "P64 Troncal Oriente",
    "tramo": "N/A",
    "lat": -33.3113183,
    "lng": -70.6342524,
    "km": 0,
    "tipo": "toll_gantry",
    "sentido": "",
    "tags": {
      "@id": "node/382079878",
      "highway": "toll_gantry",
      "name": "P64 Troncal Oriente",
      "ref": "P64"
    },
    "autopista": "Autopista Central",
    "color": "#E53E3E"
  },
  {
    "id": "node/454636152",
    "nombre": "Américo Vespucio",
    "tramo": "N/A",
    "lat": -33.4848651,
    "lng": -70.7410211,
    "km": 0,
    "tipo": "toll_gantry",
    "sentido": "",
    "tags": {
      "@id": "node/454636152",
      "highway": "toll_gantry",
      "name": "Américo Vespucio",
      "ref": "T1"
    },
    "autopista": "Vespucio Norte/Sur",
    "color": "#805AD5"
  },
  {
    "id": "node/454636182",
    "nombre": "Américo Vespucio",
    "tramo": "N/A",
    "lat": -33.4847582,
    "lng": -70.741127,
    "km": 0,
    "tipo": "toll_gantry",
    "sentido": "",
    "tags": {
      "@id": "node/454636182",
      "highway": "toll_gantry",
      "name": "Américo Vespucio",
      "ref": "T1"
    },
    "autopista": "Vespucio Norte/Sur",
    "color": "#805AD5"
  },
  {
    "id": "node/636752664",
    "nombre": "P102 Kennedy - El salto",
    "tramo": "N/A",
    "lat": -33.3988003,
    "lng": -70.6151323,
    "km": 0,
    "tipo": "toll_gantry",
    "sentido": "",
    "tags": {
      "@id": "node/636752664",
      "highway": "toll_gantry",
      "name": "P102 Kennedy - El salto",
      "ref": "PC 102"
    },
    "autopista": "Costanera Norte",
    "color": "#3182CE"
  },
  {
    "id": "node/2077631034",
    "nombre": "PA17 - 14 de la Fama - Américo Vespucio Norte",
    "tramo": "N/A",
    "lat": -33.3685816,
    "lng": -70.6991042,
    "km": 0,
    "tipo": "toll_gantry",
    "sentido": "",
    "tags": {
      "@id": "node/2077631034",
      "highway": "toll_gantry",
      "name": "PA17 - 14 de la Fama - Américo Vespucio Norte",
      "ref": "PA17"
    },
    "autopista": "Vespucio Norte/Sur",
    "color": "#805AD5"
  },
  {
    "id": "node/2486323474",
    "nombre": "P07 Estoril - Las Tranqueras",
    "tramo": "N/A",
    "lat": -33.3876805,
    "lng": -70.5429258,
    "km": 0,
    "tipo": "toll_gantry",
    "sentido": "",
    "tags": {
      "@id": "node/2486323474",
      "highway": "toll_gantry",
      "name": "P07 Estoril - Las Tranqueras",
      "ref": "P07"
    },
    "autopista": "Autopista Central",
    "color": "#E53E3E"
  },
  {
    "id": "node/2490264555",
    "nombre": "PA7 - Las Acacias - Américo Vespucio",
    "tramo": "N/A",
    "lat": -33.5478986,
    "lng": -70.6970069,
    "km": 0,
    "tipo": "toll_gantry",
    "sentido": "",
    "tags": {
      "@id": "node/2490264555",
      "highway": "toll_gantry",
      "name": "PA7 - Las Acacias - Américo Vespucio",
      "ref": "PA7"
    },
    "autopista": "Vespucio Norte/Sur",
    "color": "#805AD5"
  },
  {
    "id": "node/2490264558",
    "nombre": "PA8 - Américo Vespucio - Las Acacias",
    "tramo": "N/A",
    "lat": -33.5476268,
    "lng": -70.696839,
    "km": 0,
    "tipo": "toll_gantry",
    "sentido": "",
    "tags": {
      "@id": "node/2490264558",
      "highway": "toll_gantry",
      "name": "PA8 - Américo Vespucio - Las Acacias",
      "ref": "PA8"
    },
    "autopista": "Vespucio Norte/Sur",
    "color": "#805AD5"
  },
  {
    "id": "node/2612857718",
    "nombre": "P05 Vivaceta - Carrascal",
    "tramo": "N/A",
    "lat": -33.4264381,
    "lng": -70.669833,
    "km": 0,
    "tipo": "toll_gantry",
    "sentido": "",
    "tags": {
      "@id": "node/2612857718",
      "highway": "toll_gantry",
      "name": "P05 Vivaceta - Carrascal",
      "ref": "P05"
    },
    "autopista": "Autopista Central",
    "color": "#E53E3E"
  },
  {
    "id": "node/2948768935",
    "nombre": "P2.2 Puente Lo Saldes - Centenario",
    "tramo": "N/A",
    "lat": -33.3944443,
    "lng": -70.6033861,
    "km": 0,
    "tipo": "toll_gantry",
    "sentido": "",
    "tags": {
      "@id": "node/2948768935",
      "highway": "toll_gantry",
      "name": "P2.2 Puente Lo Saldes - Centenario",
      "ref": "P2.2"
    },
    "autopista": "Autopista Central",
    "color": "#E53E3E"
  },
  {
    "id": "node/2951662070",
    "nombre": "P01 Puente La Dehesa - Gran Vía",
    "tramo": "N/A",
    "lat": -33.3758198,
    "lng": -70.5426489,
    "km": 0,
    "tipo": "toll_gantry",
    "sentido": "",
    "tags": {
      "@id": "node/2951662070",
      "highway": "toll_gantry",
      "name": "P01 Puente La Dehesa - Gran Vía",
      "ref": "P01"
    },
    "autopista": "Autopista Central",
    "color": "#E53E3E"
  },
  {
    "id": "node/3241339769",
    "nombre": "P8.1 Las Tranqueras - Costanera Norte (Longitud 5,46 Kms)",
    "tramo": "N/A",
    "lat": -33.4081406,
    "lng": -70.5997632,
    "km": 0,
    "tipo": "toll_gantry",
    "sentido": "",
    "tags": {
      "@id": "node/3241339769",
      "highway": "toll_gantry",
      "name": "P8.1 Las Tranqueras - Costanera Norte (Longitud 5,46 Kms)",
      "ref": "P8.1"
    },
    "autopista": "Costanera Norte",
    "color": "#3182CE"
  },
  {
    "id": "node/4399757534",
    "nombre": "PA31 - Carlos Valdovinos - Alameda",
    "tramo": "N/A",
    "lat": -33.469011,
    "lng": -70.6562428,
    "km": 0,
    "tipo": "toll_gantry",
    "sentido": "",
    "tags": {
      "@id": "node/4399757534",
      "highway": "toll_gantry",
      "name": "PA31 - Carlos Valdovinos - Alameda",
      "ref": "PA31"
    },
    "autopista": "Vespucio Norte/Sur",
    "color": "#805AD5"
  },
  {
    "id": "node/4455202302",
    "nombre": "P1 Ruta 78 - Santa Elena",
    "tramo": "N/A",
    "lat": -33.483359,
    "lng": -70.7530939,
    "km": 0,
    "tipo": "toll_gantry",
    "sentido": "",
    "tags": {
      "@id": "node/4455202302",
      "highway": "toll_gantry",
      "name": "P1 Ruta 78 - Santa Elena",
      "ref": "P1"
    },
    "autopista": "Autopista Central",
    "color": "#E53E3E"
  },
  {
    "id": "node/4999156427",
    "nombre": "P63 Troncal Poniente",
    "tramo": "N/A",
    "lat": -33.2994711,
    "lng": -70.6704931,
    "km": 0,
    "tipo": "toll_gantry",
    "sentido": "",
    "tags": {
      "@id": "node/4999156427",
      "highway": "toll_gantry",
      "name": "P63 Troncal Poniente",
      "ref": "P63"
    },
    "autopista": "Autopista Central",
    "color": "#E53E3E"
  },
  {
    "id": "node/4999156428",
    "nombre": "P62 Troncal Poniente",
    "tramo": "N/A",
    "lat": -33.2993839,
    "lng": -70.6704998,
    "km": 0,
    "tipo": "toll_gantry",
    "sentido": "",
    "tags": {
      "@id": "node/4999156428",
      "highway": "toll_gantry",
      "name": "P62 Troncal Poniente",
      "ref": "P62"
    },
    "autopista": "Autopista Central",
    "color": "#E53E3E"
  },
  {
    "id": "node/4999156848",
    "nombre": "P65 Troncal Oriente",
    "tramo": "N/A",
    "lat": -33.3113895,
    "lng": -70.6341887,
    "km": 0,
    "tipo": "toll_gantry",
    "sentido": "",
    "tags": {
      "@id": "node/4999156848",
      "highway": "toll_gantry",
      "name": "P65 Troncal Oriente",
      "ref": "P65"
    },
    "autopista": "Autopista Central",
    "color": "#E53E3E"
  },
  {
    "id": "node/5035918756",
    "nombre": "Pórtico Desconocido",
    "tramo": "N/A",
    "lat": -33.3881842,
    "lng": -70.6017535,
    "km": 0,
    "tipo": "toll_gantry",
    "sentido": "",
    "tags": {
      "@id": "node/5035918756",
      "highway": "toll_gantry"
    },
    "autopista": "Otros Peajes/TAG",
    "color": "#94a3b8"
  },
  {
    "id": "node/5145133779",
    "nombre": "PA20 - Américo Vespucio - Ruta 5 Sur",
    "tramo": "N/A",
    "lat": -33.5364729,
    "lng": -70.7076591,
    "km": 0,
    "tipo": "toll_gantry",
    "sentido": "",
    "tags": {
      "@id": "node/5145133779",
      "highway": "toll_gantry",
      "name": "PA20 - Américo Vespucio - Ruta 5 Sur",
      "ref": "PA20"
    },
    "autopista": "Vespucio Norte/Sur",
    "color": "#805AD5"
  },
  {
    "id": "node/5521500757",
    "nombre": "P17 Los Mares - Ruta 78",
    "tramo": "N/A",
    "lat": -33.4828675,
    "lng": -70.7535733,
    "km": 0,
    "tipo": "toll_gantry",
    "sentido": "",
    "tags": {
      "@id": "node/5521500757",
      "highway": "toll_gantry",
      "name": "P17 Los Mares - Ruta 78",
      "ref": "P17"
    },
    "autopista": "Autopista Central",
    "color": "#E53E3E"
  },
  {
    "id": "node/5532689550",
    "nombre": "Padre Hurtado",
    "tramo": "N/A",
    "lat": -33.5528306,
    "lng": -70.8139017,
    "km": 0,
    "tipo": "toll_gantry",
    "sentido": "",
    "tags": {
      "@id": "node/5532689550",
      "highway": "toll_gantry",
      "name": "Padre Hurtado",
      "ref": "T3"
    },
    "autopista": "Otros Peajes/TAG",
    "color": "#94a3b8"
  },
  {
    "id": "node/5568374798",
    "nombre": "P61 Lateral",
    "tramo": "N/A",
    "lat": -33.3259183,
    "lng": -70.6242867,
    "km": 0,
    "tipo": "toll_gantry",
    "sentido": "",
    "tags": {
      "@id": "node/5568374798",
      "highway": "toll_gantry",
      "name": "P61 Lateral",
      "ref": "P61"
    },
    "autopista": "Autopista Central",
    "color": "#E53E3E"
  },
  {
    "id": "node/5568374819",
    "nombre": "P60 Lateral",
    "tramo": "N/A",
    "lat": -33.3246935,
    "lng": -70.6248043,
    "km": 0,
    "tipo": "toll_gantry",
    "sentido": "",
    "tags": {
      "@id": "node/5568374819",
      "highway": "toll_gantry",
      "name": "P60 Lateral",
      "ref": "P60"
    },
    "autopista": "Autopista Central",
    "color": "#E53E3E"
  },
  {
    "id": "node/5572951836",
    "nombre": "P05 Carrascal - Vivaceta",
    "tramo": "N/A",
    "lat": -33.426442,
    "lng": -70.6701402,
    "km": 0,
    "tipo": "toll_gantry",
    "sentido": "",
    "tags": {
      "@id": "node/5572951836",
      "highway": "toll_gantry",
      "name": "P05 Carrascal - Vivaceta",
      "ref": "P05"
    },
    "autopista": "Autopista Central",
    "color": "#E53E3E"
  },
  {
    "id": "node/5579887517",
    "nombre": "P8.0 Las Tranqueras - Costanera Norte",
    "tramo": "N/A",
    "lat": -33.4080729,
    "lng": -70.599764,
    "km": 0,
    "tipo": "toll_gantry",
    "sentido": "",
    "tags": {
      "@id": "node/5579887517",
      "highway": "toll_gantry",
      "name": "P8.0 Las Tranqueras - Costanera Norte",
      "ref": "P8.0"
    },
    "autopista": "Costanera Norte",
    "color": "#3182CE"
  },
  {
    "id": "node/5788252112",
    "nombre": "P8.0 Costanera Norte - Las Tranqueras",
    "tramo": "N/A",
    "lat": -33.40909,
    "lng": -70.6043271,
    "km": 0,
    "tipo": "toll_gantry",
    "sentido": "",
    "tags": {
      "@id": "node/5788252112",
      "highway": "toll_gantry",
      "name": "P8.0 Costanera Norte - Las Tranqueras",
      "ref": "P8.0"
    },
    "autopista": "Costanera Norte",
    "color": "#3182CE"
  },
  {
    "id": "node/5788252531",
    "nombre": "P8.1 Costanera Norte - Las Tranqueras",
    "tramo": "N/A",
    "lat": -33.4090708,
    "lng": -70.6038986,
    "km": 0,
    "tipo": "toll_gantry",
    "sentido": "",
    "tags": {
      "@id": "node/5788252531",
      "highway": "toll_gantry",
      "name": "P8.1 Costanera Norte - Las Tranqueras",
      "ref": "P8.1"
    },
    "autopista": "Costanera Norte",
    "color": "#3182CE"
  },
  {
    "id": "node/6114084134",
    "nombre": "PA12 - Alameda - Carlos Valdovinos",
    "tramo": "N/A",
    "lat": -33.468848,
    "lng": -70.6565584,
    "km": 0,
    "tipo": "toll_gantry",
    "sentido": "",
    "tags": {
      "@id": "node/6114084134",
      "highway": "toll_gantry",
      "name": "PA12 - Alameda - Carlos Valdovinos",
      "ref": "PA12"
    },
    "autopista": "Vespucio Norte/Sur",
    "color": "#805AD5"
  },
  {
    "id": "node/6114084135",
    "nombre": "PA13 - Alameda - Río Mapocho",
    "tramo": "N/A",
    "lat": -33.4489228,
    "lng": -70.6595919,
    "km": 0,
    "tipo": "toll_gantry",
    "sentido": "",
    "tags": {
      "@id": "node/6114084135",
      "highway": "toll_gantry",
      "name": "PA13 - Alameda - Río Mapocho",
      "ref": "PA13"
    },
    "autopista": "Vespucio Norte/Sur",
    "color": "#805AD5"
  },
  {
    "id": "node/6114084136",
    "nombre": "PA14 - Río Mapocho - Alameda",
    "tramo": "N/A",
    "lat": -33.4483818,
    "lng": -70.6600861,
    "km": 0,
    "tipo": "toll_gantry",
    "sentido": "",
    "tags": {
      "@id": "node/6114084136",
      "highway": "toll_gantry",
      "name": "PA14 - Río Mapocho - Alameda",
      "ref": "PA14"
    },
    "autopista": "Vespucio Norte/Sur",
    "color": "#805AD5"
  },
  {
    "id": "node/6114138859",
    "nombre": "PA18 - Américo Vespucio Norte - 14 de la Fama",
    "tramo": "N/A",
    "lat": -33.3682982,
    "lng": -70.6994258,
    "km": 0,
    "tipo": "toll_gantry",
    "sentido": "",
    "tags": {
      "@id": "node/6114138859",
      "highway": "toll_gantry",
      "name": "PA18 - Américo Vespucio Norte - 14 de la Fama",
      "ref": "PA18"
    },
    "autopista": "Vespucio Norte/Sur",
    "color": "#805AD5"
  },
  {
    "id": "node/6114138863",
    "nombre": "PA19 - Ruta 5 Sur - Américo Vespucio",
    "tramo": "N/A",
    "lat": -33.5514043,
    "lng": -70.7090613,
    "km": 0,
    "tipo": "toll_gantry",
    "sentido": "",
    "tags": {
      "@id": "node/6114138863",
      "highway": "toll_gantry",
      "name": "PA19 - Ruta 5 Sur - Américo Vespucio",
      "ref": "PA19"
    },
    "autopista": "Vespucio Norte/Sur",
    "color": "#805AD5"
  },
  {
    "id": "node/6114166012",
    "nombre": "P4.3 Coronel - Santa Julia",
    "tramo": "N/A",
    "lat": -33.5411449,
    "lng": -70.6149956,
    "km": 0,
    "tipo": "toll_gantry",
    "sentido": "",
    "tags": {
      "@id": "node/6114166012",
      "highway": "toll_gantry",
      "name": "P4.3 Coronel - Santa Julia",
      "ref": "P4.3"
    },
    "autopista": "Autopista Central",
    "color": "#E53E3E"
  },
  {
    "id": "node/6114166014",
    "nombre": "P4.2 Gnmo. de Alderete - Vicuña Mackena",
    "tramo": "N/A",
    "lat": -33.5268018,
    "lng": -70.6025742,
    "km": 0,
    "tipo": "toll_gantry",
    "sentido": "",
    "tags": {
      "@id": "node/6114166014",
      "highway": "toll_gantry",
      "name": "P4.2 Gnmo. de Alderete - Vicuña Mackena",
      "ref": "P4.2"
    },
    "autopista": "Autopista Central",
    "color": "#E53E3E"
  },
  {
    "id": "node/6114181656",
    "nombre": "P1.3 2a Transversal - Camino a Melipilla",
    "tramo": "N/A",
    "lat": -33.5058611,
    "lng": -70.728455,
    "km": 0,
    "tipo": "toll_gantry",
    "sentido": "",
    "tags": {
      "@id": "node/6114181656",
      "highway": "toll_gantry",
      "name": "P1.3 2a Transversal - Camino a Melipilla",
      "ref": "P1.3"
    },
    "autopista": "Autopista Central",
    "color": "#E53E3E"
  },
  {
    "id": "node/6114181658",
    "nombre": "P1.1 General Velásquez - Ruta 78",
    "tramo": "N/A",
    "lat": -33.5165613,
    "lng": -70.7125335,
    "km": 0,
    "tipo": "toll_gantry",
    "sentido": "",
    "tags": {
      "@id": "node/6114181658",
      "highway": "toll_gantry",
      "name": "P1.1 General Velásquez - Ruta 78",
      "ref": "P1.1"
    },
    "autopista": "Autopista Central",
    "color": "#E53E3E"
  },
  {
    "id": "node/6114181660",
    "nombre": "P2.2 Gral. Velásquez - Ruta 5",
    "tramo": "N/A",
    "lat": -33.526262,
    "lng": -70.6941029,
    "km": 0,
    "tipo": "toll_gantry",
    "sentido": "",
    "tags": {
      "@id": "node/6114181660",
      "highway": "toll_gantry",
      "name": "P2.2 Gral. Velásquez - Ruta 5",
      "ref": "P2.2"
    },
    "autopista": "Autopista Central",
    "color": "#E53E3E"
  },
  {
    "id": "node/6114181662",
    "nombre": "P2.1 Ruta 5 - General Velásquez",
    "tramo": "N/A",
    "lat": -33.5260519,
    "lng": -70.6940167,
    "km": 0,
    "tipo": "toll_gantry",
    "sentido": "",
    "tags": {
      "@id": "node/6114181662",
      "highway": "toll_gantry",
      "name": "P2.1 Ruta 5 - General Velásquez",
      "ref": "P2.1"
    },
    "autopista": "Autopista Central",
    "color": "#E53E3E"
  },
  {
    "id": "node/6114181664",
    "nombre": "P3.3 Gran Avenida - Ruta 5",
    "tramo": "N/A",
    "lat": -33.5335852,
    "lng": -70.6763449,
    "km": 0,
    "tipo": "toll_gantry",
    "sentido": "",
    "tags": {
      "@id": "node/6114181664",
      "highway": "toll_gantry",
      "name": "P3.3 Gran Avenida - Ruta 5",
      "ref": "P3.3"
    },
    "autopista": "Autopista Central",
    "color": "#E53E3E"
  },
  {
    "id": "node/6114181666",
    "nombre": "P3.4 Ruta 5 - Gran Avenida",
    "tramo": "N/A",
    "lat": -33.5338163,
    "lng": -70.6764509,
    "km": 0,
    "tipo": "toll_gantry",
    "sentido": "",
    "tags": {
      "@id": "node/6114181666",
      "highway": "toll_gantry",
      "name": "P3.4 Ruta 5 - Gran Avenida",
      "ref": "P3.4"
    },
    "autopista": "Autopista Central",
    "color": "#E53E3E"
  },
  {
    "id": "node/6114181668",
    "nombre": "P3.2 Gran Avenida - Santa Rosa",
    "tramo": "N/A",
    "lat": -33.5398418,
    "lng": -70.6529975,
    "km": 0,
    "tipo": "toll_gantry",
    "sentido": "",
    "tags": {
      "@id": "node/6114181668",
      "highway": "toll_gantry",
      "name": "P3.2 Gran Avenida - Santa Rosa",
      "ref": "P3.2"
    },
    "autopista": "Autopista Central",
    "color": "#E53E3E"
  },
  {
    "id": "node/6114181670",
    "nombre": "P3.1 Santa Rosa - Gran Avenida",
    "tramo": "N/A",
    "lat": -33.539608,
    "lng": -70.6529431,
    "km": 0,
    "tipo": "toll_gantry",
    "sentido": "",
    "tags": {
      "@id": "node/6114181670",
      "highway": "toll_gantry",
      "name": "P3.1 Santa Rosa - Gran Avenida",
      "ref": "P3.1"
    },
    "autopista": "Autopista Central",
    "color": "#E53E3E"
  },
  {
    "id": "node/6114221889",
    "nombre": "P101 Salto - Kennedy",
    "tramo": "N/A",
    "lat": -33.3986159,
    "lng": -70.6157247,
    "km": 0,
    "tipo": "toll_gantry",
    "sentido": "",
    "tags": {
      "@id": "node/6114221889",
      "highway": "toll_gantry",
      "name": "P101 Salto - Kennedy",
      "ref": "PC 101"
    },
    "autopista": "Costanera Norte",
    "color": "#3182CE"
  },
  {
    "id": "node/6114286295",
    "nombre": "PA4 - Calera de Tango - La Capilla",
    "tramo": "N/A",
    "lat": -33.6219812,
    "lng": -70.7148676,
    "km": 0,
    "tipo": "toll_gantry",
    "sentido": "",
    "tags": {
      "@id": "node/6114286295",
      "highway": "toll_gantry",
      "name": "PA4 - Calera de Tango - La Capilla",
      "ref": "PA4"
    },
    "autopista": "Vespucio Norte/Sur",
    "color": "#805AD5"
  },
  {
    "id": "node/6114286297",
    "nombre": "PA3 - La Capilla - Colón",
    "tramo": "N/A",
    "lat": -33.6227591,
    "lng": -70.7145696,
    "km": 0,
    "tipo": "toll_gantry",
    "sentido": "",
    "tags": {
      "@id": "node/6114286297",
      "highway": "toll_gantry",
      "name": "PA3 - La Capilla - Colón",
      "ref": "PA3"
    },
    "autopista": "Vespucio Norte/Sur",
    "color": "#805AD5"
  },
  {
    "id": "node/6114291823",
    "nombre": "PA5 - Colón - Las Acacias",
    "tramo": "N/A",
    "lat": -33.5827543,
    "lng": -70.7138422,
    "km": 0,
    "tipo": "toll_gantry",
    "sentido": "",
    "tags": {
      "@id": "node/6114291823",
      "highway": "toll_gantry",
      "name": "PA5 - Colón - Las Acacias",
      "ref": "PA5"
    },
    "autopista": "Vespucio Norte/Sur",
    "color": "#805AD5"
  },
  {
    "id": "node/6114291826",
    "nombre": "PA6 - Lo Blanco - Colón",
    "tramo": "N/A",
    "lat": -33.5824122,
    "lng": -70.7139749,
    "km": 0,
    "tipo": "toll_gantry",
    "sentido": "",
    "tags": {
      "@id": "node/6114291826",
      "highway": "toll_gantry",
      "name": "PA6 - Lo Blanco - Colón",
      "ref": "PA6"
    },
    "autopista": "Vespucio Norte/Sur",
    "color": "#805AD5"
  },
  {
    "id": "node/6116236796",
    "nombre": "EV Entrada Vivaceta",
    "tramo": "N/A",
    "lat": -33.4302801,
    "lng": -70.6572269,
    "km": 0,
    "tipo": "toll_gantry",
    "sentido": "",
    "tags": {
      "@id": "node/6116236796",
      "highway": "toll_gantry",
      "name": "EV Entrada Vivaceta",
      "ref": "EV"
    },
    "autopista": "Otros Peajes/TAG",
    "color": "#94a3b8"
  },
  {
    "id": "node/6116236797",
    "nombre": "P04 Vivaceta - Torres Tajamar",
    "tramo": "N/A",
    "lat": -33.4302245,
    "lng": -70.6579611,
    "km": 0,
    "tipo": "toll_gantry",
    "sentido": "",
    "tags": {
      "@id": "node/6116236797",
      "highway": "toll_gantry",
      "name": "P04 Vivaceta - Torres Tajamar",
      "ref": "P04"
    },
    "autopista": "Autopista Central",
    "color": "#E53E3E"
  },
  {
    "id": "node/6116236799",
    "nombre": "PA15 - 14 de la Fama - Río Mapocho",
    "tramo": "N/A",
    "lat": -33.4265149,
    "lng": -70.6688947,
    "km": 0,
    "tipo": "toll_gantry",
    "sentido": "",
    "tags": {
      "@id": "node/6116236799",
      "highway": "toll_gantry",
      "name": "PA15 - 14 de la Fama - Río Mapocho",
      "ref": "PA15"
    },
    "autopista": "Vespucio Norte/Sur",
    "color": "#805AD5"
  },
  {
    "id": "node/6116282528",
    "nombre": "P07 Las Tranqueras - Estoril",
    "tramo": "N/A",
    "lat": -33.3872062,
    "lng": -70.5413721,
    "km": 0,
    "tipo": "toll_gantry",
    "sentido": "",
    "tags": {
      "@id": "node/6116282528",
      "highway": "toll_gantry",
      "name": "P07 Las Tranqueras - Estoril",
      "ref": "P07"
    },
    "autopista": "Autopista Central",
    "color": "#E53E3E"
  },
  {
    "id": "node/6116324740",
    "nombre": "PA23 - Carlos Valdovinos - Alameda",
    "tramo": "N/A",
    "lat": -33.4690606,
    "lng": -70.6881273,
    "km": 0,
    "tipo": "toll_gantry",
    "sentido": "",
    "tags": {
      "@id": "node/6116324740",
      "highway": "toll_gantry",
      "name": "PA23 - Carlos Valdovinos - Alameda",
      "ref": "PA23"
    },
    "autopista": "Vespucio Norte/Sur",
    "color": "#805AD5"
  },
  {
    "id": "node/6116324742",
    "nombre": "PA24 - Alameda - Carlos Valdovinos",
    "tramo": "N/A",
    "lat": -33.4698378,
    "lng": -70.6882455,
    "km": 0,
    "tipo": "toll_gantry",
    "sentido": "",
    "tags": {
      "@id": "node/6116324742",
      "highway": "toll_gantry",
      "name": "PA24 - Alameda - Carlos Valdovinos",
      "ref": "PA24"
    },
    "autopista": "Vespucio Norte/Sur",
    "color": "#805AD5"
  },
  {
    "id": "node/6116324745",
    "nombre": "PA21 - Américo Vespucio - Carlos Valdovinos",
    "tramo": "N/A",
    "lat": -33.5064259,
    "lng": -70.697251,
    "km": 0,
    "tipo": "toll_gantry",
    "sentido": "",
    "tags": {
      "@id": "node/6116324745",
      "highway": "toll_gantry",
      "name": "PA21 - Américo Vespucio - Carlos Valdovinos",
      "ref": "PA21"
    },
    "autopista": "Vespucio Norte/Sur",
    "color": "#805AD5"
  },
  {
    "id": "node/6116324746",
    "nombre": "PA22 - Carlos Valdovinos - Américo Vespucio",
    "tramo": "N/A",
    "lat": -33.5056315,
    "lng": -70.6970203,
    "km": 0,
    "tipo": "toll_gantry",
    "sentido": "",
    "tags": {
      "@id": "node/6116324746",
      "highway": "toll_gantry",
      "name": "PA22 - Carlos Valdovinos - Américo Vespucio",
      "ref": "PA22"
    },
    "autopista": "Vespucio Norte/Sur",
    "color": "#805AD5"
  },
  {
    "id": "node/6116337639",
    "nombre": "PA29 - Ruta 5 Norte - Río Mapocho",
    "tramo": "N/A",
    "lat": -33.3819384,
    "lng": -70.6954739,
    "km": 0,
    "tipo": "toll_gantry",
    "sentido": "",
    "tags": {
      "@id": "node/6116337639",
      "highway": "toll_gantry",
      "name": "PA29 - Ruta 5 Norte - Río Mapocho",
      "ref": "PA29"
    },
    "autopista": "Vespucio Norte/Sur",
    "color": "#805AD5"
  },
  {
    "id": "node/6116337640",
    "nombre": "PA25 - Alameda - Río Mapocho",
    "tramo": "N/A",
    "lat": -33.4467397,
    "lng": -70.6920804,
    "km": 0,
    "tipo": "toll_gantry",
    "sentido": "",
    "tags": {
      "@id": "node/6116337640",
      "highway": "toll_gantry",
      "name": "PA25 - Alameda - Río Mapocho",
      "ref": "PA25"
    },
    "autopista": "Vespucio Norte/Sur",
    "color": "#805AD5"
  },
  {
    "id": "node/6116337642",
    "nombre": "PA26 - Río Mapocho - Alameda",
    "tramo": "N/A",
    "lat": -33.4474517,
    "lng": -70.6922865,
    "km": 0,
    "tipo": "toll_gantry",
    "sentido": "",
    "tags": {
      "@id": "node/6116337642",
      "highway": "toll_gantry",
      "name": "PA26 - Río Mapocho - Alameda",
      "ref": "PA26"
    },
    "autopista": "Vespucio Norte/Sur",
    "color": "#805AD5"
  },
  {
    "id": "node/6116371328",
    "nombre": "PA10 - Departamental - Carlos Valdovinos",
    "tramo": "N/A",
    "lat": -33.4957722,
    "lng": -70.6638989,
    "km": 0,
    "tipo": "toll_gantry",
    "sentido": "",
    "tags": {
      "@id": "node/6116371328",
      "highway": "toll_gantry",
      "name": "PA10 - Departamental - Carlos Valdovinos",
      "ref": "PA10"
    },
    "autopista": "Vespucio Norte/Sur",
    "color": "#805AD5"
  },
  {
    "id": "node/6116371330",
    "nombre": "PA11 - Carlos Valdovinos - Departamental",
    "tramo": "N/A",
    "lat": -33.4953488,
    "lng": -70.6638932,
    "km": 0,
    "tipo": "toll_gantry",
    "sentido": "",
    "tags": {
      "@id": "node/6116371330",
      "highway": "toll_gantry",
      "name": "PA11 - Carlos Valdovinos - Departamental",
      "ref": "PA11"
    },
    "autopista": "Vespucio Norte/Sur",
    "color": "#805AD5"
  },
  {
    "id": "node/6116371333",
    "nombre": "PA9 - Departamental - Américo Vespucio",
    "tramo": "N/A",
    "lat": -33.5071477,
    "lng": -70.6694242,
    "km": 0,
    "tipo": "toll_gantry",
    "sentido": "",
    "tags": {
      "@id": "node/6116371333",
      "highway": "toll_gantry",
      "name": "PA9 - Departamental - Américo Vespucio",
      "ref": "PA9"
    },
    "autopista": "Vespucio Norte/Sur",
    "color": "#805AD5"
  },
  {
    "id": "node/6116371334",
    "nombre": "PA30 - Américo Vespucio - Departamental",
    "tramo": "N/A",
    "lat": -33.5072881,
    "lng": -70.6693191,
    "km": 0,
    "tipo": "toll_gantry",
    "sentido": "",
    "tags": {
      "@id": "node/6116371334",
      "highway": "toll_gantry",
      "name": "PA30 - Américo Vespucio - Departamental",
      "ref": "PA30"
    },
    "autopista": "Vespucio Norte/Sur",
    "color": "#805AD5"
  },
  {
    "id": "node/6116371480",
    "nombre": "P6 Condell - Costanera Norte",
    "tramo": "N/A",
    "lat": -33.3993533,
    "lng": -70.7755638,
    "km": 0,
    "tipo": "toll_gantry",
    "sentido": "",
    "tags": {
      "@id": "node/6116371480",
      "highway": "toll_gantry",
      "name": "P6 Condell - Costanera Norte",
      "ref": "P6"
    },
    "autopista": "Costanera Norte",
    "color": "#3182CE"
  },
  {
    "id": "node/6116371481",
    "nombre": "P5 Costanera Norte - Condell",
    "tramo": "N/A",
    "lat": -33.3996244,
    "lng": -70.7756381,
    "km": 0,
    "tipo": "toll_gantry",
    "sentido": "",
    "tags": {
      "@id": "node/6116371481",
      "highway": "toll_gantry",
      "name": "P5 Costanera Norte - Condell",
      "ref": "P5"
    },
    "autopista": "Costanera Norte",
    "color": "#3182CE"
  },
  {
    "id": "node/6116371482",
    "nombre": "P4 Costanera Norte - Ruta 68",
    "tramo": "N/A",
    "lat": -33.4312884,
    "lng": -70.7848507,
    "km": 0,
    "tipo": "toll_gantry",
    "sentido": "",
    "tags": {
      "@id": "node/6116371482",
      "highway": "toll_gantry",
      "name": "P4 Costanera Norte - Ruta 68",
      "ref": "P4"
    },
    "autopista": "Costanera Norte",
    "color": "#3182CE"
  },
  {
    "id": "node/6116872049",
    "nombre": "P5.4 Las Torres - Quilín",
    "tramo": "N/A",
    "lat": -33.4960669,
    "lng": -70.5845023,
    "km": 0,
    "tipo": "toll_gantry",
    "sentido": "",
    "tags": {
      "@id": "node/6116872049",
      "highway": "toll_gantry",
      "name": "P5.4 Las Torres - Quilín",
      "ref": "P5.4"
    },
    "autopista": "Autopista Central",
    "color": "#E53E3E"
  },
  {
    "id": "node/6116872050",
    "nombre": "P5.3 Quilín - Las Torres",
    "tramo": "N/A",
    "lat": -33.4955584,
    "lng": -70.5844562,
    "km": 0,
    "tipo": "toll_gantry",
    "sentido": "",
    "tags": {
      "@id": "node/6116872050",
      "highway": "toll_gantry",
      "name": "P5.3 Quilín - Las Torres",
      "ref": "P5.3"
    },
    "autopista": "Autopista Central",
    "color": "#E53E3E"
  },
  {
    "id": "node/6116872054",
    "nombre": "P5.1 Grecia - Quilín",
    "tramo": "N/A",
    "lat": -33.4809446,
    "lng": -70.5790434,
    "km": 0,
    "tipo": "toll_gantry",
    "sentido": "",
    "tags": {
      "@id": "node/6116872054",
      "highway": "toll_gantry",
      "name": "P5.1 Grecia - Quilín",
      "ref": "P5.1"
    },
    "autopista": "Autopista Central",
    "color": "#E53E3E"
  },
  {
    "id": "node/6116872055",
    "nombre": "P5.2 Quilín - Grecia",
    "tramo": "N/A",
    "lat": -33.4810039,
    "lng": -70.5787734,
    "km": 0,
    "tipo": "toll_gantry",
    "sentido": "",
    "tags": {
      "@id": "node/6116872055",
      "highway": "toll_gantry",
      "name": "P5.2 Quilín - Grecia",
      "ref": "P5.2"
    },
    "autopista": "Autopista Central",
    "color": "#E53E3E"
  },
  {
    "id": "node/6117130667",
    "nombre": "P2.2 Centenario - Puente Lo Saldes",
    "tramo": "N/A",
    "lat": -33.3944093,
    "lng": -70.6035262,
    "km": 0,
    "tipo": "toll_gantry",
    "sentido": "",
    "tags": {
      "@id": "node/6117130667",
      "highway": "toll_gantry",
      "name": "P2.2 Centenario - Puente Lo Saldes",
      "ref": "P2.2"
    },
    "autopista": "Autopista Central",
    "color": "#E53E3E"
  },
  {
    "id": "node/6117130668",
    "nombre": "P15 El Salto - Recoleta",
    "tramo": "N/A",
    "lat": -33.3886636,
    "lng": -70.6329673,
    "km": 0,
    "tipo": "toll_gantry",
    "sentido": "",
    "tags": {
      "@id": "node/6117130668",
      "highway": "toll_gantry",
      "name": "P15 El Salto - Recoleta",
      "ref": "P15"
    },
    "autopista": "Autopista Central",
    "color": "#E53E3E"
  },
  {
    "id": "node/6117130669",
    "nombre": "P12 Pedro Fontova - Guanaco",
    "tramo": "N/A",
    "lat": -33.3733937,
    "lng": -70.6649728,
    "km": 0,
    "tipo": "toll_gantry",
    "sentido": "",
    "tags": {
      "@id": "node/6117130669",
      "highway": "toll_gantry",
      "name": "P12 Pedro Fontova - Guanaco",
      "ref": "P12"
    },
    "autopista": "Autopista Central",
    "color": "#E53E3E"
  },
  {
    "id": "node/6117130670",
    "nombre": "P13 Recoleta - Pedro Fontova",
    "tramo": "N/A",
    "lat": -33.3733644,
    "lng": -70.6646148,
    "km": 0,
    "tipo": "toll_gantry",
    "sentido": "",
    "tags": {
      "@id": "node/6117130670",
      "highway": "toll_gantry",
      "name": "P13 Recoleta - Pedro Fontova",
      "ref": "P13"
    },
    "autopista": "Autopista Central",
    "color": "#E53E3E"
  },
  {
    "id": "node/6117130671",
    "nombre": "P11 Pedro Fontova - Ruta 5 Norte",
    "tramo": "N/A",
    "lat": -33.3658211,
    "lng": -70.6951137,
    "km": 0,
    "tipo": "toll_gantry",
    "sentido": "",
    "tags": {
      "@id": "node/6117130671",
      "highway": "toll_gantry",
      "name": "P11 Pedro Fontova - Ruta 5 Norte",
      "ref": "P11"
    },
    "autopista": "Autopista Central",
    "color": "#E53E3E"
  },
  {
    "id": "node/6117130672",
    "nombre": "P10 Ruta 5 Norte - Pedro Fontova",
    "tramo": "N/A",
    "lat": -33.3659479,
    "lng": -70.6969041,
    "km": 0,
    "tipo": "toll_gantry",
    "sentido": "",
    "tags": {
      "@id": "node/6117130672",
      "highway": "toll_gantry",
      "name": "P10 Ruta 5 Norte - Pedro Fontova",
      "ref": "P10"
    },
    "autopista": "Autopista Central",
    "color": "#E53E3E"
  },
  {
    "id": "node/6117130673",
    "nombre": "P9 Lo Echevers - Ruta 5 Norte",
    "tramo": "N/A",
    "lat": -33.3688771,
    "lng": -70.7043428,
    "km": 0,
    "tipo": "toll_gantry",
    "sentido": "",
    "tags": {
      "@id": "node/6117130673",
      "highway": "toll_gantry",
      "name": "P9 Lo Echevers - Ruta 5 Norte",
      "ref": "P9"
    },
    "autopista": "Autopista Central",
    "color": "#E53E3E"
  },
  {
    "id": "node/6117130674",
    "nombre": "P8 Ruta 5 Norte - Condell",
    "tramo": "N/A",
    "lat": -33.3730357,
    "lng": -70.7113029,
    "km": 0,
    "tipo": "toll_gantry",
    "sentido": "",
    "tags": {
      "@id": "node/6117130674",
      "highway": "toll_gantry",
      "lit": "yes",
      "name": "P8 Ruta 5 Norte - Condell",
      "operator": "Sociedad Concesionaria Vespucio Norte Express S.A.",
      "ref": "P8"
    },
    "autopista": "Autopista Central",
    "color": "#E53E3E"
  },
  {
    "id": "node/6117130675",
    "nombre": "P7 Condell - Lo Echevers",
    "tramo": "N/A",
    "lat": -33.38132,
    "lng": -70.7539367,
    "km": 0,
    "tipo": "toll_gantry",
    "sentido": "",
    "tags": {
      "@id": "node/6117130675",
      "highway": "toll_gantry",
      "name": "P7 Condell - Lo Echevers",
      "ref": "P7"
    },
    "autopista": "Autopista Central",
    "color": "#E53E3E"
  },
  {
    "id": "node/6117141442",
    "nombre": "P01 Gran Vía - Puente La Dehesa",
    "tramo": "N/A",
    "lat": -33.3757292,
    "lng": -70.5430603,
    "km": 0,
    "tipo": "toll_gantry",
    "sentido": "",
    "tags": {
      "@id": "node/6117141442",
      "highway": "toll_gantry",
      "name": "P01 Gran Vía - Puente La Dehesa",
      "ref": "P01"
    },
    "autopista": "Autopista Central",
    "color": "#E53E3E"
  },
  {
    "id": "node/6122216578",
    "nombre": "P3 - Enlace Buenaventura",
    "tramo": "N/A",
    "lat": -33.3398283,
    "lng": -70.7120052,
    "km": 0,
    "tipo": "toll_gantry",
    "sentido": "",
    "tags": {
      "@id": "node/6122216578",
      "highway": "toll_gantry",
      "operator": "Sociedad Concesionaria Nueva Aconcagua S.A.",
      "ref": "P3 - Enlace Buenaventura"
    },
    "autopista": "Autopista Central",
    "color": "#E53E3E"
  },
  {
    "id": "node/6223443638",
    "nombre": "Peaje Lampa",
    "tramo": "N/A",
    "lat": -33.2355983,
    "lng": -70.7590362,
    "km": 0,
    "tipo": "toll_gantry",
    "sentido": "",
    "tags": {
      "@id": "node/6223443638",
      "charge": "200CLP motorcycle;700CLP motocar;1400CLP hgv",
      "check_date": "2024-04-25",
      "highway": "toll_gantry",
      "name": "Peaje Lampa",
      "operator": "Sociedad Concesionaria Nueva Aconcagua S.A."
    },
    "autopista": "Otros Peajes/TAG",
    "color": "#94a3b8"
  },
  {
    "id": "node/6277890252",
    "nombre": "Peaje Lampa",
    "tramo": "N/A",
    "lat": -33.2356286,
    "lng": -70.7588357,
    "km": 0,
    "tipo": "toll_gantry",
    "sentido": "",
    "tags": {
      "@id": "node/6277890252",
      "charge": "200CLP motorcycle;700CLP motocar;1400CLP hgv",
      "check_date": "2024-04-25",
      "highway": "toll_gantry",
      "name": "Peaje Lampa",
      "operator": "Sociedad Concesionaria Nueva Aconcagua S.A."
    },
    "autopista": "Otros Peajes/TAG",
    "color": "#94a3b8"
  },
  {
    "id": "node/6316909495",
    "nombre": "Peaje Acceso Vial AMB",
    "tramo": "N/A",
    "lat": -33.4165959,
    "lng": -70.7927267,
    "km": 0,
    "tipo": "toll_gantry",
    "sentido": "",
    "tags": {
      "@id": "node/6316909495",
      "highway": "toll_gantry",
      "name": "Peaje Acceso Vial AMB"
    },
    "autopista": "Otros Peajes/TAG",
    "color": "#94a3b8"
  },
  {
    "id": "node/6508970705",
    "nombre": "P09 Ruta 68 - Américo Vespucio Poniente",
    "tramo": "N/A",
    "lat": -33.418078,
    "lng": -70.7910033,
    "km": 0,
    "tipo": "toll_gantry",
    "sentido": "",
    "tags": {
      "@id": "node/6508970705",
      "highway": "toll_gantry",
      "name": "P09 Ruta 68 - Américo Vespucio Poniente",
      "ref": "P09"
    },
    "autopista": "Vespucio Norte/Sur",
    "color": "#805AD5"
  },
  {
    "id": "node/6508970707",
    "nombre": "P09 Américo Vespucio Poniente - Ruta 68",
    "tramo": "N/A",
    "lat": -33.4178581,
    "lng": -70.7908552,
    "km": 0,
    "tipo": "toll_gantry",
    "sentido": "",
    "tags": {
      "@id": "node/6508970707",
      "highway": "toll_gantry",
      "name": "P09 Américo Vespucio Poniente - Ruta 68",
      "ref": "P09"
    },
    "autopista": "Vespucio Norte/Sur",
    "color": "#805AD5"
  },
  {
    "id": "node/6509152132",
    "nombre": "P6.2 Américo Vespucio Poniente - Petersen",
    "tramo": "N/A",
    "lat": -33.4130639,
    "lng": -70.7667427,
    "km": 0,
    "tipo": "toll_gantry",
    "sentido": "",
    "tags": {
      "@id": "node/6509152132",
      "highway": "toll_gantry",
      "name": "P6.2 Américo Vespucio Poniente - Petersen",
      "ref": "P6.2"
    },
    "autopista": "Vespucio Norte/Sur",
    "color": "#805AD5"
  },
  {
    "id": "node/6509152133",
    "nombre": "P6.2 Petersen - Américo Vespucio Poniente",
    "tramo": "N/A",
    "lat": -33.4129722,
    "lng": -70.7664565,
    "km": 0,
    "tipo": "toll_gantry",
    "sentido": "",
    "tags": {
      "@id": "node/6509152133",
      "highway": "toll_gantry",
      "name": "P6.2 Petersen - Américo Vespucio Poniente",
      "ref": "P6.2"
    },
    "autopista": "Vespucio Norte/Sur",
    "color": "#805AD5"
  },
  {
    "id": "node/6548809057",
    "nombre": "P4 - Enlace Buenaventura",
    "tramo": "N/A",
    "lat": -33.3398151,
    "lng": -70.7122122,
    "km": 0,
    "tipo": "toll_gantry",
    "sentido": "",
    "tags": {
      "@id": "node/6548809057",
      "highway": "toll_gantry",
      "operator": "Sociedad Concesionaria Nueva Aconcagua S.A.",
      "ref": "P4 - Enlace Buenaventura"
    },
    "autopista": "Autopista Central",
    "color": "#E53E3E"
  },
  {
    "id": "node/6548823501",
    "nombre": "P2 - Paso Superior Lo Marcoleta",
    "tramo": "N/A",
    "lat": -33.357992,
    "lng": -70.7040905,
    "km": 0,
    "tipo": "toll_gantry",
    "sentido": "",
    "tags": {
      "@id": "node/6548823501",
      "highway": "toll_gantry",
      "operator": "Sociedad Concesionaria Nueva Aconcagua S.A.",
      "ref": "P2 - Paso Superior Lo Marcoleta"
    },
    "autopista": "Autopista Central",
    "color": "#E53E3E"
  },
  {
    "id": "node/6548823505",
    "nombre": "P1 - Paso Superior Lo Marcoleta",
    "tramo": "N/A",
    "lat": -33.3580071,
    "lng": -70.7038343,
    "km": 0,
    "tipo": "toll_gantry",
    "sentido": "",
    "tags": {
      "@id": "node/6548823505",
      "highway": "toll_gantry",
      "operator": "Sociedad Concesionaria Nueva Aconcagua S.A.",
      "ref": "P1 - Paso Superior Lo Marcoleta"
    },
    "autopista": "Autopista Central",
    "color": "#E53E3E"
  },
  {
    "id": "node/6615396115",
    "nombre": "P8 - Enlace Lo Pinto",
    "tramo": "N/A",
    "lat": -33.2799197,
    "lng": -70.7390951,
    "km": 0,
    "tipo": "toll_gantry",
    "sentido": "",
    "tags": {
      "@id": "node/6615396115",
      "highway": "toll_gantry",
      "operator": "Sociedad Concesionaria Nueva Aconcagua S.A.",
      "ref": "P8 - Enlace Lo Pinto"
    },
    "autopista": "Autopista Central",
    "color": "#E53E3E"
  },
  {
    "id": "node/6615396116",
    "nombre": "P7 - Enlace Lo Pinto",
    "tramo": "N/A",
    "lat": -33.2799505,
    "lng": -70.7388797,
    "km": 0,
    "tipo": "toll_gantry",
    "sentido": "",
    "tags": {
      "@id": "node/6615396116",
      "highway": "toll_gantry",
      "operator": "Sociedad Concesionaria Nueva Aconcagua S.A.",
      "ref": "P7 - Enlace Lo Pinto"
    },
    "autopista": "Autopista Central",
    "color": "#E53E3E"
  },
  {
    "id": "node/6615396126",
    "nombre": "P6 - Paso Superior La Montaña",
    "tramo": "N/A",
    "lat": -33.3170797,
    "lng": -70.7224257,
    "km": 0,
    "tipo": "toll_gantry",
    "sentido": "",
    "tags": {
      "@id": "node/6615396126",
      "highway": "toll_gantry",
      "operator": "Sociedad Concesionaria Nueva Aconcagua S.A.",
      "ref": "P6 - Paso Superior La Montaña"
    },
    "autopista": "Autopista Central",
    "color": "#E53E3E"
  },
  {
    "id": "node/6615396127",
    "nombre": "P5 - Paso Superior La Montaña",
    "tramo": "N/A",
    "lat": -33.3171089,
    "lng": -70.7221978,
    "km": 0,
    "tipo": "toll_gantry",
    "sentido": "",
    "tags": {
      "@id": "node/6615396127",
      "highway": "toll_gantry",
      "operator": "Sociedad Concesionaria Nueva Aconcagua S.A.",
      "ref": "P5 - Paso Superior La Montaña"
    },
    "autopista": "Autopista Central",
    "color": "#E53E3E"
  },
  {
    "id": "node/6876949435",
    "nombre": "P203",
    "tramo": "N/A",
    "lat": -33.3961477,
    "lng": -70.6041337,
    "km": 0,
    "tipo": "toll_gantry",
    "sentido": "",
    "tags": {
      "@id": "node/6876949435",
      "highway": "toll_gantry",
      "ref": "P203"
    },
    "autopista": "Autopista Central",
    "color": "#E53E3E"
  },
  {
    "id": "node/6876949475",
    "nombre": "P212",
    "tramo": "N/A",
    "lat": -33.3916344,
    "lng": -70.5970934,
    "km": 0,
    "tipo": "toll_gantry",
    "sentido": "",
    "tags": {
      "@id": "node/6876949475",
      "highway": "toll_gantry",
      "ref": "P212"
    },
    "autopista": "Autopista Central",
    "color": "#E53E3E"
  },
  {
    "id": "node/6876949534",
    "nombre": "P201",
    "tramo": "N/A",
    "lat": -33.3964481,
    "lng": -70.6198001,
    "km": 0,
    "tipo": "toll_gantry",
    "sentido": "",
    "tags": {
      "@id": "node/6876949534",
      "highway": "toll_gantry",
      "ref": "P201"
    },
    "autopista": "Autopista Central",
    "color": "#E53E3E"
  },
  {
    "id": "node/6876949652",
    "nombre": "P110",
    "tramo": "N/A",
    "lat": -33.3952496,
    "lng": -70.6101099,
    "km": 0,
    "tipo": "toll_gantry",
    "sentido": "",
    "tags": {
      "@id": "node/6876949652",
      "fixme": "approx location",
      "highway": "toll_gantry",
      "ref": "P110"
    },
    "autopista": "Autopista Central",
    "color": "#E53E3E"
  },
  {
    "id": "node/7857987358",
    "nombre": "P101",
    "tramo": "N/A",
    "lat": -33.4301386,
    "lng": -70.5747034,
    "km": 0,
    "tipo": "toll_gantry",
    "sentido": "",
    "tags": {
      "@id": "node/7857987358",
      "highway": "toll_gantry",
      "ref": "P101"
    },
    "autopista": "Autopista Central",
    "color": "#E53E3E"
  },
  {
    "id": "node/7857987360",
    "nombre": "P210",
    "tramo": "N/A",
    "lat": -33.4259696,
    "lng": -70.5756851,
    "km": 0,
    "tipo": "toll_gantry",
    "sentido": "",
    "tags": {
      "@id": "node/7857987360",
      "highway": "toll_gantry",
      "ref": "P210"
    },
    "autopista": "Autopista Central",
    "color": "#E53E3E"
  },
  {
    "id": "node/7857987369",
    "nombre": "Pórtico Desconocido",
    "tramo": "N/A",
    "lat": -33.4204151,
    "lng": -70.5814201,
    "km": 0,
    "tipo": "toll_gantry",
    "sentido": "",
    "tags": {
      "@id": "node/7857987369",
      "highway": "toll_gantry"
    },
    "autopista": "Otros Peajes/TAG",
    "color": "#94a3b8"
  },
  {
    "id": "node/7857987371",
    "nombre": "P108",
    "tramo": "N/A",
    "lat": -33.3966044,
    "lng": -70.5887555,
    "km": 0,
    "tipo": "toll_gantry",
    "sentido": "",
    "tags": {
      "@id": "node/7857987371",
      "highway": "toll_gantry",
      "ref": "P108"
    },
    "autopista": "Autopista Central",
    "color": "#E53E3E"
  },
  {
    "id": "node/7857987375",
    "nombre": "Pórtico Desconocido",
    "tramo": "N/A",
    "lat": -33.3927556,
    "lng": -70.5924714,
    "km": 0,
    "tipo": "toll_gantry",
    "sentido": "",
    "tags": {
      "@id": "node/7857987375",
      "highway": "toll_gantry"
    },
    "autopista": "Otros Peajes/TAG",
    "color": "#94a3b8"
  },
  {
    "id": "node/7857987382",
    "nombre": "P205",
    "tramo": "N/A",
    "lat": -33.4002342,
    "lng": -70.5875491,
    "km": 0,
    "tipo": "toll_gantry",
    "sentido": "",
    "tags": {
      "@id": "node/7857987382",
      "highway": "toll_gantry",
      "ref": "P205"
    },
    "autopista": "Autopista Central",
    "color": "#E53E3E"
  },
  {
    "id": "node/7858008986",
    "nombre": "P104",
    "tramo": "N/A",
    "lat": -33.4094018,
    "lng": -70.5869709,
    "km": 0,
    "tipo": "toll_gantry",
    "sentido": "",
    "tags": {
      "@id": "node/7858008986",
      "highway": "toll_gantry",
      "ref": "P104"
    },
    "autopista": "Autopista Central",
    "color": "#E53E3E"
  },
  {
    "id": "node/7858008992",
    "nombre": "P209",
    "tramo": "N/A",
    "lat": -33.4244301,
    "lng": -70.5784158,
    "km": 0,
    "tipo": "toll_gantry",
    "sentido": "",
    "tags": {
      "@id": "node/7858008992",
      "highway": "toll_gantry",
      "ref": "P209"
    },
    "autopista": "Autopista Central",
    "color": "#E53E3E"
  },
  {
    "id": "node/9193098855",
    "nombre": "Pórtico Desconocido",
    "tramo": "N/A",
    "lat": -33.3896504,
    "lng": -70.6000072,
    "km": 0,
    "tipo": "toll_gantry",
    "sentido": "",
    "tags": {
      "@id": "node/9193098855",
      "highway": "toll_gantry"
    },
    "autopista": "Otros Peajes/TAG",
    "color": "#94a3b8"
  },
  {
    "id": "node/9193205577",
    "nombre": "P211",
    "tramo": "N/A",
    "lat": -33.4325433,
    "lng": -70.5744918,
    "km": 0,
    "tipo": "toll_gantry",
    "sentido": "",
    "tags": {
      "@id": "node/9193205577",
      "highway": "toll_gantry",
      "ref": "P211"
    },
    "autopista": "Autopista Central",
    "color": "#E53E3E"
  },
  {
    "id": "node/9193322368",
    "nombre": "P103",
    "tramo": "N/A",
    "lat": -33.4124572,
    "lng": -70.5820353,
    "km": 0,
    "tipo": "toll_gantry",
    "sentido": "",
    "tags": {
      "@id": "node/9193322368",
      "highway": "toll_gantry",
      "ref": "P103"
    },
    "autopista": "Autopista Central",
    "color": "#E53E3E"
  },
  {
    "id": "node/9193389137",
    "nombre": "Pórtico Desconocido",
    "tramo": "N/A",
    "lat": -33.401491,
    "lng": -70.5804876,
    "km": 0,
    "tipo": "toll_gantry",
    "sentido": "",
    "tags": {
      "@id": "node/9193389137",
      "highway": "toll_gantry"
    },
    "autopista": "Otros Peajes/TAG",
    "color": "#94a3b8"
  },
  {
    "id": "node/9193389152",
    "nombre": "Pórtico Desconocido",
    "tramo": "N/A",
    "lat": -33.4050356,
    "lng": -70.5863334,
    "km": 0,
    "tipo": "toll_gantry",
    "sentido": "",
    "tags": {
      "@id": "node/9193389152",
      "highway": "toll_gantry"
    },
    "autopista": "Otros Peajes/TAG",
    "color": "#94a3b8"
  },
  {
    "id": "node/9515305316",
    "nombre": "P8.3 Costanera Norte - Las Tranqueras",
    "tramo": "N/A",
    "lat": -33.4090615,
    "lng": -70.6017246,
    "km": 0,
    "tipo": "toll_gantry",
    "sentido": "",
    "tags": {
      "@id": "node/9515305316",
      "highway": "toll_gantry",
      "name": "P8.3 Costanera Norte - Las Tranqueras",
      "ref": "P8.3"
    },
    "autopista": "Costanera Norte",
    "color": "#3182CE"
  },
  {
    "id": "node/9515321517",
    "nombre": "P8.2 Costanera Norte - Las Tranqueras",
    "tramo": "N/A",
    "lat": -33.4084907,
    "lng": -70.6019447,
    "km": 0,
    "tipo": "toll_gantry",
    "sentido": "",
    "tags": {
      "@id": "node/9515321517",
      "highway": "toll_gantry",
      "name": "P8.2 Costanera Norte - Las Tranqueras",
      "ref": "P8.2"
    },
    "autopista": "Costanera Norte",
    "color": "#3182CE"
  },
  {
    "id": "node/9516346638",
    "nombre": "SB Salida Bellavista",
    "tramo": "N/A",
    "lat": -33.4221473,
    "lng": -70.6198252,
    "km": 0,
    "tipo": "toll_gantry",
    "sentido": "",
    "tags": {
      "@id": "node/9516346638",
      "highway": "toll_gantry",
      "name": "SB Salida Bellavista",
      "ref": "SB"
    },
    "autopista": "Otros Peajes/TAG",
    "color": "#94a3b8"
  },
  {
    "id": "node/9566814796",
    "nombre": "PA37 - Colón - Calera de Tango",
    "tramo": "N/A",
    "lat": -33.596894,
    "lng": -70.7157922,
    "km": 0,
    "tipo": "toll_gantry",
    "sentido": "",
    "tags": {
      "@id": "node/9566814796",
      "highway": "toll_gantry",
      "name": "PA37 - Colón - Calera de Tango",
      "ref": "PA37"
    },
    "autopista": "Vespucio Norte/Sur",
    "color": "#805AD5"
  },
  {
    "id": "node/9611695677",
    "nombre": "P2 Ruta 68 - Los Mares",
    "tramo": "N/A",
    "lat": -33.4563722,
    "lng": -70.7671428,
    "km": 0,
    "tipo": "toll_gantry",
    "sentido": "",
    "tags": {
      "@id": "node/9611695677",
      "highway": "toll_gantry",
      "name": "P2 Ruta 68 - Los Mares",
      "ref": "P2"
    },
    "autopista": "Autopista Central",
    "color": "#E53E3E"
  },
  {
    "id": "node/9611695678",
    "nombre": "P16 Santa Elena - Ruta 68",
    "tramo": "N/A",
    "lat": -33.4512259,
    "lng": -70.7729987,
    "km": 0,
    "tipo": "toll_gantry",
    "sentido": "",
    "tags": {
      "@id": "node/9611695678",
      "highway": "toll_gantry",
      "name": "P16 Santa Elena - Ruta 68",
      "ref": "P16"
    },
    "autopista": "Autopista Central",
    "color": "#E53E3E"
  },
  {
    "id": "node/9624207147",
    "nombre": "P4.1 Gnmo. de Alderete - Santa Julia",
    "tramo": "N/A",
    "lat": -33.5297901,
    "lng": -70.6048452,
    "km": 0,
    "tipo": "toll_gantry",
    "sentido": "",
    "tags": {
      "@id": "node/9624207147",
      "highway": "toll_gantry",
      "name": "P4.1 Gnmo. de Alderete - Santa Julia",
      "ref": "P4.1"
    },
    "autopista": "Autopista Central",
    "color": "#E53E3E"
  },
  {
    "id": "node/9626675441",
    "nombre": "P00 Puente San Francsico - Puente Padre Arteaga",
    "tramo": "N/A",
    "lat": -33.3712087,
    "lng": -70.5229107,
    "km": 0,
    "tipo": "toll_gantry",
    "sentido": "",
    "tags": {
      "@id": "node/9626675441",
      "highway": "toll_gantry",
      "name": "P00 Puente San Francsico - Puente Padre Arteaga",
      "ref": "P00"
    },
    "autopista": "Autopista Central",
    "color": "#E53E3E"
  },
  {
    "id": "node/9627393148",
    "nombre": "P2.1 Gran Vía - Centenario",
    "tramo": "N/A",
    "lat": -33.3846042,
    "lng": -70.5926964,
    "km": 0,
    "tipo": "toll_gantry",
    "sentido": "",
    "tags": {
      "@id": "node/9627393148",
      "highway": "toll_gantry",
      "ref": "P2.1 Gran Vía - Centenario"
    },
    "autopista": "Otros Peajes/TAG",
    "color": "#94a3b8"
  },
  {
    "id": "node/9627393149",
    "nombre": "P2.1 Puente Centenario - Gran Vía",
    "tramo": "N/A",
    "lat": -33.3846827,
    "lng": -70.5926045,
    "km": 0,
    "tipo": "toll_gantry",
    "sentido": "",
    "tags": {
      "@id": "node/9627393149",
      "highway": "toll_gantry",
      "ref": "P2.1 Puente Centenario - Gran Vía"
    },
    "autopista": "Otros Peajes/TAG",
    "color": "#94a3b8"
  },
  {
    "id": "node/9638303963",
    "nombre": "P03 Torres Tajamar - Puente Lo Saldes",
    "tramo": "N/A",
    "lat": -33.4241131,
    "lng": -70.6218108,
    "km": 0,
    "tipo": "toll_gantry",
    "sentido": "",
    "tags": {
      "@id": "node/9638303963",
      "highway": "toll_gantry",
      "name": "P03 Torres Tajamar - Puente Lo Saldes",
      "ref": "P03"
    },
    "autopista": "Autopista Central",
    "color": "#E53E3E"
  },
  {
    "id": "node/9638303965",
    "nombre": "P03 Puente Lo Saldes - Vivaceta",
    "tramo": "N/A",
    "lat": -33.4239919,
    "lng": -70.6219547,
    "km": 0,
    "tipo": "toll_gantry",
    "sentido": "",
    "tags": {
      "@id": "node/9638303965",
      "highway": "toll_gantry",
      "name": "P03 Puente Lo Saldes - Vivaceta",
      "ref": "P03"
    },
    "autopista": "Autopista Central",
    "color": "#E53E3E"
  },
  {
    "id": "node/9641637788",
    "nombre": "P6.1 Petersen - Carrascal",
    "tramo": "N/A",
    "lat": -33.411826,
    "lng": -70.7395828,
    "km": 0,
    "tipo": "toll_gantry",
    "sentido": "",
    "tags": {
      "@id": "node/9641637788",
      "highway": "toll_gantry",
      "name": "P6.1 Petersen - Carrascal",
      "ref": "P6.1"
    },
    "autopista": "Autopista Central",
    "color": "#E53E3E"
  },
  {
    "id": "node/9641637789",
    "nombre": "P6.1 Carrascal - Petersen",
    "tramo": "N/A",
    "lat": -33.4117097,
    "lng": -70.7395811,
    "km": 0,
    "tipo": "toll_gantry",
    "sentido": "",
    "tags": {
      "@id": "node/9641637789",
      "highway": "toll_gantry",
      "name": "P6.1 Carrascal - Petersen",
      "ref": "P6.1"
    },
    "autopista": "Autopista Central",
    "color": "#E53E3E"
  },
  {
    "id": "node/9645902676",
    "nombre": "Pórtico Desconocido",
    "tramo": "N/A",
    "lat": -33.3099829,
    "lng": -70.7018568,
    "km": 0,
    "tipo": "toll_gantry",
    "sentido": "",
    "tags": {
      "@id": "node/9645902676",
      "highway": "toll_gantry"
    },
    "autopista": "Otros Peajes/TAG",
    "color": "#94a3b8"
  },
  {
    "id": "node/9645902677",
    "nombre": "Pórtico Desconocido",
    "tramo": "N/A",
    "lat": -33.310002,
    "lng": -70.7017482,
    "km": 0,
    "tipo": "toll_gantry",
    "sentido": "",
    "tags": {
      "@id": "node/9645902677",
      "highway": "toll_gantry"
    },
    "autopista": "Otros Peajes/TAG",
    "color": "#94a3b8"
  },
  {
    "id": "node/9651968599",
    "nombre": "Pórtico Desconocido",
    "tramo": "N/A",
    "lat": -33.4555165,
    "lng": -70.8948554,
    "km": 0,
    "tipo": "toll_gantry",
    "sentido": "",
    "tags": {
      "@id": "node/9651968599",
      "highway": "toll_gantry"
    },
    "autopista": "Otros Peajes/TAG",
    "color": "#94a3b8"
  },
  {
    "id": "node/9651968600",
    "nombre": "Pórtico Desconocido",
    "tramo": "N/A",
    "lat": -33.455434,
    "lng": -70.8948976,
    "km": 0,
    "tipo": "toll_gantry",
    "sentido": "",
    "tags": {
      "@id": "node/9651968600",
      "highway": "toll_gantry"
    },
    "autopista": "Otros Peajes/TAG",
    "color": "#94a3b8"
  },
  {
    "id": "node/9695367765",
    "nombre": "P8.3 Costanera Norte - Las Tranqueras",
    "tramo": "N/A",
    "lat": -33.4024008,
    "lng": -70.5816916,
    "km": 0,
    "tipo": "toll_gantry",
    "sentido": "",
    "tags": {
      "@id": "node/9695367765",
      "highway": "toll_gantry",
      "name": "P8.3 Costanera Norte - Las Tranqueras",
      "ref": "P8.3"
    },
    "autopista": "Costanera Norte",
    "color": "#3182CE"
  },
  {
    "id": "node/9844306687",
    "nombre": "PA1 - La Capilla - Los Guindos",
    "tramo": "N/A",
    "lat": -33.6954354,
    "lng": -70.7236723,
    "km": 0,
    "tipo": "toll_gantry",
    "sentido": "",
    "tags": {
      "@id": "node/9844306687",
      "highway": "toll_gantry",
      "name": "PA1 - La Capilla - Los Guindos",
      "ref": "PA1"
    },
    "autopista": "Vespucio Norte/Sur",
    "color": "#805AD5"
  },
  {
    "id": "node/9938078827",
    "nombre": "Pórtico Desconocido",
    "tramo": "N/A",
    "lat": -33.409307,
    "lng": -70.5869372,
    "km": 0,
    "tipo": "toll_gantry",
    "sentido": "",
    "tags": {
      "@id": "node/9938078827",
      "highway": "toll_gantry"
    },
    "autopista": "Otros Peajes/TAG",
    "color": "#94a3b8"
  },
  {
    "id": "node/10052503573",
    "nombre": "Pórtico Desconocido",
    "tramo": "N/A",
    "lat": -33.3656212,
    "lng": -70.8016625,
    "km": 0,
    "tipo": "toll_gantry",
    "sentido": "",
    "tags": {
      "@id": "node/10052503573",
      "highway": "toll_gantry"
    },
    "autopista": "Otros Peajes/TAG",
    "color": "#94a3b8"
  },
  {
    "id": "node/10052503576",
    "nombre": "Pórtico Desconocido",
    "tramo": "N/A",
    "lat": -33.365656,
    "lng": -70.8016893,
    "km": 0,
    "tipo": "toll_gantry",
    "sentido": "",
    "tags": {
      "@id": "node/10052503576",
      "highway": "toll_gantry"
    },
    "autopista": "Otros Peajes/TAG",
    "color": "#94a3b8"
  },
  {
    "id": "node/12511401244",
    "nombre": "Talagante",
    "tramo": "N/A",
    "lat": -33.6429011,
    "lng": -70.8756342,
    "km": 0,
    "tipo": "toll_gantry",
    "sentido": "",
    "tags": {
      "@id": "node/12511401244",
      "highway": "toll_gantry",
      "name": "Talagante",
      "ref": "T6"
    },
    "autopista": "Otros Peajes/TAG",
    "color": "#94a3b8"
  },
  {
    "id": "node/12511401245",
    "nombre": "Talagante",
    "tramo": "N/A",
    "lat": -33.6429391,
    "lng": -70.8754904,
    "km": 0,
    "tipo": "toll_gantry",
    "sentido": "",
    "tags": {
      "@id": "node/12511401245",
      "highway": "toll_gantry",
      "name": "Talagante",
      "ref": "T6"
    },
    "autopista": "Otros Peajes/TAG",
    "color": "#94a3b8"
  },
  {
    "id": "node/12511401260",
    "nombre": "Rinconada",
    "tramo": "N/A",
    "lat": -33.4956473,
    "lng": -70.7771624,
    "km": 0,
    "tipo": "toll_gantry",
    "sentido": "",
    "tags": {
      "@id": "node/12511401260",
      "highway": "toll_gantry",
      "name": "Rinconada",
      "ref": "T2"
    },
    "autopista": "Otros Peajes/TAG",
    "color": "#94a3b8"
  },
  {
    "id": "node/12511401261",
    "nombre": "Rinconada",
    "tramo": "N/A",
    "lat": -33.4955303,
    "lng": -70.777166,
    "km": 0,
    "tipo": "toll_gantry",
    "sentido": "",
    "tags": {
      "@id": "node/12511401261",
      "highway": "toll_gantry",
      "name": "Rinconada",
      "ref": "T2"
    },
    "autopista": "Otros Peajes/TAG",
    "color": "#94a3b8"
  },
  {
    "id": "node/12511401267",
    "nombre": "Padre Hurtado",
    "tramo": "N/A",
    "lat": -33.5529192,
    "lng": -70.8137842,
    "km": 0,
    "tipo": "toll_gantry",
    "sentido": "",
    "tags": {
      "@id": "node/12511401267",
      "highway": "toll_gantry",
      "name": "Padre Hurtado",
      "ref": "T3"
    },
    "autopista": "Otros Peajes/TAG",
    "color": "#94a3b8"
  },
  {
    "id": "node/12511401272",
    "nombre": "Malloco",
    "tramo": "N/A",
    "lat": -33.5878075,
    "lng": -70.8450495,
    "km": 0,
    "tipo": "toll_gantry",
    "sentido": "",
    "tags": {
      "@id": "node/12511401272",
      "highway": "toll_gantry",
      "name": "Malloco",
      "ref": "T4"
    },
    "autopista": "Otros Peajes/TAG",
    "color": "#94a3b8"
  },
  {
    "id": "node/12511401277",
    "nombre": "Malloco",
    "tramo": "N/A",
    "lat": -33.6012541,
    "lng": -70.8471047,
    "km": 0,
    "tipo": "toll_gantry",
    "sentido": "",
    "tags": {
      "@id": "node/12511401277",
      "highway": "toll_gantry",
      "name": "Malloco",
      "ref": "T4"
    },
    "autopista": "Otros Peajes/TAG",
    "color": "#94a3b8"
  },
  {
    "id": "node/12511401282",
    "nombre": "El Paico",
    "tramo": "N/A",
    "lat": -33.6848212,
    "lng": -70.943167,
    "km": 0,
    "tipo": "toll_gantry",
    "sentido": "",
    "tags": {
      "@id": "node/12511401282",
      "highway": "toll_gantry",
      "name": "El Paico",
      "ref": "T7"
    },
    "autopista": "Otros Peajes/TAG",
    "color": "#94a3b8"
  },
  {
    "id": "node/12511401283",
    "nombre": "El Paico",
    "tramo": "N/A",
    "lat": -33.6846963,
    "lng": -70.943213,
    "km": 0,
    "tipo": "toll_gantry",
    "sentido": "",
    "tags": {
      "@id": "node/12511401283",
      "highway": "toll_gantry",
      "name": "El Paico",
      "ref": "T7"
    },
    "autopista": "Otros Peajes/TAG",
    "color": "#94a3b8"
  },
  {
    "id": "node/13122129279",
    "nombre": "P11 Pedro Fontova - Ruta 5 Norte",
    "tramo": "N/A",
    "lat": -33.3657718,
    "lng": -70.6951146,
    "km": 0,
    "tipo": "toll_gantry",
    "sentido": "",
    "tags": {
      "@id": "node/13122129279",
      "highway": "toll_gantry",
      "name": "P11 Pedro Fontova - Ruta 5 Norte",
      "ref": "P11"
    },
    "autopista": "Autopista Central",
    "color": "#E53E3E"
  },
  {
    "id": "node/243646585",
    "nombre": "Peaje Troncal Lo Prado",
    "tramo": "N/A",
    "lat": -33.456415,
    "lng": -70.8986965,
    "km": 0,
    "tipo": "toll_booth",
    "sentido": "",
    "tags": {
      "barrier": "toll_booth",
      "name": "Peaje Troncal Lo Prado"
    },
    "autopista": "Peajes de Chile",
    "color": "#38A169"
  },
  {
    "id": "node/243658123",
    "nombre": "Peaje",
    "tramo": "N/A",
    "lat": -34.5721238,
    "lng": -70.9727459,
    "km": 0,
    "tipo": "toll_booth",
    "sentido": "",
    "tags": {
      "barrier": "toll_booth",
      "fee": "yes"
    },
    "autopista": "Peajes de Chile",
    "color": "#38A169"
  },
  {
    "id": "node/254521764",
    "nombre": "Peaje",
    "tramo": "N/A",
    "lat": -33.0618463,
    "lng": -71.4574933,
    "km": 0,
    "tipo": "toll_booth",
    "sentido": "",
    "tags": {
      "barrier": "toll_booth"
    },
    "autopista": "Peajes de Chile",
    "color": "#38A169"
  },
  {
    "id": "node/256284942",
    "nombre": "Peaje",
    "tramo": "N/A",
    "lat": -33.1614997,
    "lng": -71.5420524,
    "km": 0,
    "tipo": "toll_booth",
    "sentido": "",
    "tags": {
      "barrier": "toll_booth"
    },
    "autopista": "Peajes de Chile",
    "color": "#38A169"
  },
  {
    "id": "node/266072602",
    "nombre": "Peaje Chillán",
    "tramo": "N/A",
    "lat": -36.5592814,
    "lng": -72.0951782,
    "km": 0,
    "tipo": "toll_booth",
    "sentido": "",
    "tags": {
      "barrier": "toll_booth",
      "name": "Peaje Chillán"
    },
    "autopista": "Peajes de Chile",
    "color": "#38A169"
  },
  {
    "id": "node/267231332",
    "nombre": "Peaje",
    "tramo": "N/A",
    "lat": -41.4391014,
    "lng": -72.9560374,
    "km": 0,
    "tipo": "toll_booth",
    "sentido": "",
    "tags": {
      "barrier": "toll_booth"
    },
    "autopista": "Peajes de Chile",
    "color": "#38A169"
  },
  {
    "id": "node/267235510",
    "nombre": "Peaje Troncal Agua Amarilla",
    "tramo": "N/A",
    "lat": -36.73008,
    "lng": -72.8602168,
    "km": 0,
    "tipo": "toll_booth",
    "sentido": "",
    "tags": {
      "barrier": "toll_booth",
      "charge": "4300 CLP",
      "currency:CLP": "yes",
      "name": "Peaje Troncal Agua Amarilla",
      "payment:cash": "yes"
    },
    "autopista": "Peajes de Chile",
    "color": "#38A169"
  },
  {
    "id": "node/267454369",
    "nombre": "Peaje Los Libertadores",
    "tramo": "N/A",
    "lat": -33.3108701,
    "lng": -70.7021396,
    "km": 0,
    "tipo": "toll_booth",
    "sentido": "",
    "tags": {
      "barrier": "toll_booth",
      "name": "Peaje Los Libertadores",
      "official_name": "Cruce Ruta 70 (Santiago) - Cruce Ruta 60 CH (Los Andes), Sector: Túnel Chacabuco - Cruce Ruta 60 CH (Los Andes)"
    },
    "autopista": "Peajes de Chile",
    "color": "#38A169"
  },
  {
    "id": "node/269817031",
    "nombre": "Peaje",
    "tramo": "N/A",
    "lat": -32.9349726,
    "lng": -71.2882514,
    "km": 0,
    "tipo": "toll_booth",
    "sentido": "",
    "tags": {
      "barrier": "toll_booth"
    },
    "autopista": "Peajes de Chile",
    "color": "#38A169"
  },
  {
    "id": "node/270891412",
    "nombre": "Peaje",
    "tramo": "N/A",
    "lat": -40.5838511,
    "lng": -73.0976482,
    "km": 0,
    "tipo": "toll_booth",
    "sentido": "",
    "tags": {
      "barrier": "toll_booth"
    },
    "autopista": "Peajes de Chile",
    "color": "#38A169"
  },
  {
    "id": "node/270892686",
    "nombre": "Peaje",
    "tramo": "N/A",
    "lat": -40.5900362,
    "lng": -73.0980545,
    "km": 0,
    "tipo": "toll_booth",
    "sentido": "",
    "tags": {
      "barrier": "toll_booth"
    },
    "autopista": "Peajes de Chile",
    "color": "#38A169"
  },
  {
    "id": "node/270893651",
    "nombre": "Peaje",
    "tramo": "N/A",
    "lat": -40.5948312,
    "lng": -73.0991104,
    "km": 0,
    "tipo": "toll_booth",
    "sentido": "",
    "tags": {
      "barrier": "toll_booth"
    },
    "autopista": "Peajes de Chile",
    "color": "#38A169"
  },
  {
    "id": "node/271073049",
    "nombre": "Peaje",
    "tramo": "N/A",
    "lat": -40.8085086,
    "lng": -73.167507,
    "km": 0,
    "tipo": "toll_booth",
    "sentido": "",
    "tags": {
      "barrier": "toll_booth"
    },
    "autopista": "Peajes de Chile",
    "color": "#38A169"
  },
  {
    "id": "node/272205104",
    "nombre": "Peaje",
    "tramo": "N/A",
    "lat": -41.2145489,
    "lng": -73.0559456,
    "km": 0,
    "tipo": "toll_booth",
    "sentido": "",
    "tags": {
      "barrier": "toll_booth"
    },
    "autopista": "Peajes de Chile",
    "color": "#38A169"
  },
  {
    "id": "node/276093010",
    "nombre": "Peaje Troncal Sur Rutas del Pacífico",
    "tramo": "N/A",
    "lat": -33.0629256,
    "lng": -71.4340409,
    "km": 0,
    "tipo": "toll_booth",
    "sentido": "",
    "tags": {
      "barrier": "toll_booth",
      "name": "Peaje Troncal Sur Rutas del Pacífico"
    },
    "autopista": "Peajes de Chile",
    "color": "#38A169"
  },
  {
    "id": "node/276192701",
    "nombre": "Estación de Peaje Ventilla",
    "tramo": "N/A",
    "lat": -19.0794834,
    "lng": -66.2123742,
    "km": 0,
    "tipo": "toll_booth",
    "sentido": "",
    "tags": {
      "barrier": "toll_booth",
      "currency:BOB": "yes",
      "name": "Estación de Peaje Ventilla",
      "opening_hours": "24/7",
      "operator": "Vías Bolivia",
      "operator:short": "VB",
      "operator:type": "public",
      "payment:cash": "yes",
      "website": "https://www.viasbolivia.gob.bo/"
    },
    "autopista": "Peajes de Chile",
    "color": "#38A169"
  },
  {
    "id": "node/277060427",
    "nombre": "Peaje Los Libertadores",
    "tramo": "N/A",
    "lat": -33.3107111,
    "lng": -70.7024802,
    "km": 0,
    "tipo": "toll_booth",
    "sentido": "",
    "tags": {
      "barrier": "toll_booth",
      "name": "Peaje Los Libertadores",
      "official_name": "Cruce Ruta 70 (Santiago) - Cruce Ruta 60 CH (Los Andes), Sector: Túnel Chacabuco - Cruce Ruta 60 CH (Los Andes)"
    },
    "autopista": "Peajes de Chile",
    "color": "#38A169"
  },
  {
    "id": "node/277060582",
    "nombre": "Peaje",
    "tramo": "N/A",
    "lat": -33.2829646,
    "lng": -70.7026824,
    "km": 0,
    "tipo": "toll_booth",
    "sentido": "",
    "tags": {
      "barrier": "toll_booth"
    },
    "autopista": "Peajes de Chile",
    "color": "#38A169"
  },
  {
    "id": "node/279071594",
    "nombre": "Peaje",
    "tramo": "N/A",
    "lat": -32.7530363,
    "lng": -71.2531963,
    "km": 0,
    "tipo": "toll_booth",
    "sentido": "",
    "tags": {
      "barrier": "toll_booth"
    },
    "autopista": "Peajes de Chile",
    "color": "#38A169"
  },
  {
    "id": "node/282392436",
    "nombre": "Peaje",
    "tramo": "N/A",
    "lat": -33.3667686,
    "lng": -71.3085059,
    "km": 0,
    "tipo": "toll_booth",
    "sentido": "",
    "tags": {
      "barrier": "toll_booth"
    },
    "autopista": "Peajes de Chile",
    "color": "#38A169"
  },
  {
    "id": "node/286402239",
    "nombre": "Peaje Troncal F-962-G",
    "tramo": "N/A",
    "lat": -33.4716367,
    "lng": -71.4732192,
    "km": 0,
    "tipo": "toll_booth",
    "sentido": "",
    "tags": {
      "barrier": "toll_booth",
      "name": "Peaje Troncal F-962-G"
    },
    "autopista": "Peajes de Chile",
    "color": "#38A169"
  },
  {
    "id": "node/286405164",
    "nombre": "Peaje Troncal Nuevo Camino Costero",
    "tramo": "N/A",
    "lat": -33.4824603,
    "lng": -71.5817033,
    "km": 0,
    "tipo": "toll_booth",
    "sentido": "",
    "tags": {
      "barrier": "toll_booth",
      "name": "Peaje Troncal Nuevo Camino Costero"
    },
    "autopista": "Peajes de Chile",
    "color": "#38A169"
  },
  {
    "id": "node/289393693",
    "nombre": "Peaje",
    "tramo": "N/A",
    "lat": -32.6296534,
    "lng": -71.2305687,
    "km": 0,
    "tipo": "toll_booth",
    "sentido": "",
    "tags": {
      "barrier": "toll_booth",
      "fee": "4200 clp"
    },
    "autopista": "Peajes de Chile",
    "color": "#38A169"
  },
  {
    "id": "node/289394039",
    "nombre": "Peaje Tunel el Melon",
    "tramo": "N/A",
    "lat": -32.629614,
    "lng": -71.2308575,
    "km": 0,
    "tipo": "toll_booth",
    "sentido": "",
    "tags": {
      "barrier": "toll_booth",
      "fee": "4200 clp",
      "name": "Peaje Tunel el Melon",
      "name:es": "Peaje Tunel el Melon"
    },
    "autopista": "Peajes de Chile",
    "color": "#38A169"
  },
  {
    "id": "node/290324399",
    "nombre": "Peaje Las Cuevas",
    "tramo": "N/A",
    "lat": -32.8062601,
    "lng": -70.0672276,
    "km": 0,
    "tipo": "toll_booth",
    "sentido": "",
    "tags": {
      "barrier": "toll_booth",
      "name": "Peaje Las Cuevas"
    },
    "autopista": "Peajes de Chile",
    "color": "#38A169"
  },
  {
    "id": "node/294489553",
    "nombre": "Peaje Troncal Sur Rutas del Pacífico",
    "tramo": "N/A",
    "lat": -33.063448,
    "lng": -71.4341262,
    "km": 0,
    "tipo": "toll_booth",
    "sentido": "",
    "tags": {
      "barrier": "toll_booth",
      "name": "Peaje Troncal Sur Rutas del Pacífico"
    },
    "autopista": "Peajes de Chile",
    "color": "#38A169"
  },
  {
    "id": "node/294493344",
    "nombre": "Peaje",
    "tramo": "N/A",
    "lat": -33.0615109,
    "lng": -71.4570914,
    "km": 0,
    "tipo": "toll_booth",
    "sentido": "",
    "tags": {
      "barrier": "toll_booth"
    },
    "autopista": "Peajes de Chile",
    "color": "#38A169"
  },
  {
    "id": "node/300780398",
    "nombre": "Peaje",
    "tramo": "N/A",
    "lat": -36.6259327,
    "lng": -72.1605395,
    "km": 0,
    "tipo": "toll_booth",
    "sentido": "",
    "tags": {
      "barrier": "toll_booth"
    },
    "autopista": "Peajes de Chile",
    "color": "#38A169"
  },
  {
    "id": "node/302481517",
    "nombre": "Peaje",
    "tramo": "N/A",
    "lat": -34.9939598,
    "lng": -71.2324018,
    "km": 0,
    "tipo": "toll_booth",
    "sentido": "",
    "tags": {
      "barrier": "toll_booth"
    },
    "autopista": "Peajes de Chile",
    "color": "#38A169"
  },
  {
    "id": "node/302481769",
    "nombre": "Peaje",
    "tramo": "N/A",
    "lat": -34.9827166,
    "lng": -71.2150519,
    "km": 0,
    "tipo": "toll_booth",
    "sentido": "",
    "tags": {
      "barrier": "toll_booth"
    },
    "autopista": "Peajes de Chile",
    "color": "#38A169"
  },
  {
    "id": "node/302520255",
    "nombre": "Peaje",
    "tramo": "N/A",
    "lat": -35.0507825,
    "lng": -71.2822855,
    "km": 0,
    "tipo": "toll_booth",
    "sentido": "",
    "tags": {
      "barrier": "toll_booth"
    },
    "autopista": "Peajes de Chile",
    "color": "#38A169"
  },
  {
    "id": "node/302520886",
    "nombre": "Peaje",
    "tramo": "N/A",
    "lat": -35.0491835,
    "lng": -71.2800331,
    "km": 0,
    "tipo": "toll_booth",
    "sentido": "",
    "tags": {
      "barrier": "toll_booth"
    },
    "autopista": "Peajes de Chile",
    "color": "#38A169"
  },
  {
    "id": "node/303533842",
    "nombre": "Peaje",
    "tramo": "N/A",
    "lat": -36.7558145,
    "lng": -72.2953096,
    "km": 0,
    "tipo": "toll_booth",
    "sentido": "",
    "tags": {
      "barrier": "toll_booth"
    },
    "autopista": "Peajes de Chile",
    "color": "#38A169"
  },
  {
    "id": "node/303534586",
    "nombre": "Peaje Pilpilco",
    "tramo": "N/A",
    "lat": -37.5744468,
    "lng": -73.4153504,
    "km": 0,
    "tipo": "toll_booth",
    "sentido": "",
    "tags": {
      "barrier": "toll_booth",
      "name": "Peaje Pilpilco"
    },
    "autopista": "Peajes de Chile",
    "color": "#38A169"
  },
  {
    "id": "node/303535031",
    "nombre": "Peaje Troncal Queime",
    "tramo": "N/A",
    "lat": -36.7510609,
    "lng": -72.5858885,
    "km": 0,
    "tipo": "toll_booth",
    "sentido": "",
    "tags": {
      "barrier": "toll_booth",
      "name": "Peaje Troncal Queime"
    },
    "autopista": "Peajes de Chile",
    "color": "#38A169"
  },
  {
    "id": "node/303739936",
    "nombre": "Peaje",
    "tramo": "N/A",
    "lat": -33.3055026,
    "lng": -71.4112136,
    "km": 0,
    "tipo": "toll_booth",
    "sentido": "",
    "tags": {
      "barrier": "toll_booth",
      "currency:CLP": "yes",
      "payment:cash": "yes",
      "payment:tag": "yes"
    },
    "autopista": "Peajes de Chile",
    "color": "#38A169"
  },
  {
    "id": "node/303743015",
    "nombre": "Peaje",
    "tramo": "N/A",
    "lat": -33.3286015,
    "lng": -71.3903578,
    "km": 0,
    "tipo": "toll_booth",
    "sentido": "",
    "tags": {
      "barrier": "toll_booth"
    },
    "autopista": "Peajes de Chile",
    "color": "#38A169"
  },
  {
    "id": "node/303929417",
    "nombre": "Peaje",
    "tramo": "N/A",
    "lat": -40.5619131,
    "lng": -73.1003597,
    "km": 0,
    "tipo": "toll_booth",
    "sentido": "",
    "tags": {
      "barrier": "toll_booth"
    },
    "autopista": "Peajes de Chile",
    "color": "#38A169"
  },
  {
    "id": "node/304476315",
    "nombre": "Peaje Talcahuano",
    "tramo": "N/A",
    "lat": -36.7327137,
    "lng": -73.0882272,
    "km": 0,
    "tipo": "toll_booth",
    "sentido": "",
    "tags": {
      "barrier": "toll_booth",
      "name": "Peaje Talcahuano"
    },
    "autopista": "Peajes de Chile",
    "color": "#38A169"
  },
  {
    "id": "node/308525663",
    "nombre": "Salida San Carlos",
    "tramo": "N/A",
    "lat": -36.4399874,
    "lng": -71.9624817,
    "km": 0,
    "tipo": "toll_booth",
    "sentido": "",
    "tags": {
      "barrier": "toll_booth",
      "name": "Salida San Carlos"
    },
    "autopista": "Peajes de Chile",
    "color": "#38A169"
  },
  {
    "id": "node/310319125",
    "nombre": "Entrada Valle Hermoso",
    "tramo": "N/A",
    "lat": -36.9159693,
    "lng": -71.4255389,
    "km": 0,
    "tipo": "toll_booth",
    "sentido": "",
    "tags": {
      "barrier": "toll_booth",
      "name": "Entrada Valle Hermoso"
    },
    "autopista": "Peajes de Chile",
    "color": "#38A169"
  },
  {
    "id": "node/310364143",
    "nombre": "Peaje",
    "tramo": "N/A",
    "lat": -36.4141217,
    "lng": -71.9459703,
    "km": 0,
    "tipo": "toll_booth",
    "sentido": "",
    "tags": {
      "barrier": "toll_booth"
    },
    "autopista": "Peajes de Chile",
    "color": "#38A169"
  },
  {
    "id": "node/310962046",
    "nombre": "Peaje",
    "tramo": "N/A",
    "lat": -33.8184073,
    "lng": -70.7512517,
    "km": 0,
    "tipo": "toll_booth",
    "sentido": "",
    "tags": {
      "barrier": "toll_booth"
    },
    "autopista": "Peajes de Chile",
    "color": "#38A169"
  },
  {
    "id": "node/310962195",
    "nombre": "Peaje",
    "tramo": "N/A",
    "lat": -33.8220592,
    "lng": -70.7514388,
    "km": 0,
    "tipo": "toll_booth",
    "sentido": "",
    "tags": {
      "barrier": "toll_booth",
      "designation": "Plaza peaje",
      "operator": "Rutas del Maipo"
    },
    "autopista": "Peajes de Chile",
    "color": "#38A169"
  },
  {
    "id": "node/310964816",
    "nombre": "Peaje",
    "tramo": "N/A",
    "lat": -33.8522053,
    "lng": -70.7487693,
    "km": 0,
    "tipo": "toll_booth",
    "sentido": "",
    "tags": {
      "barrier": "toll_booth"
    },
    "autopista": "Peajes de Chile",
    "color": "#38A169"
  },
  {
    "id": "node/310988842",
    "nombre": "Peaje",
    "tramo": "N/A",
    "lat": -33.6634661,
    "lng": -70.6690348,
    "km": 0,
    "tipo": "toll_booth",
    "sentido": "",
    "tags": {
      "barrier": "toll_booth",
      "fee": "600",
      "phone": "+56 72 922200"
    },
    "autopista": "Peajes de Chile",
    "color": "#38A169"
  },
  {
    "id": "node/310991079",
    "nombre": "Peaje",
    "tramo": "N/A",
    "lat": -33.6632321,
    "lng": -70.6692567,
    "km": 0,
    "tipo": "toll_booth",
    "sentido": "",
    "tags": {
      "barrier": "toll_booth",
      "fee": "600",
      "phone": "+56 72 922200"
    },
    "autopista": "Peajes de Chile",
    "color": "#38A169"
  },
  {
    "id": "node/311548941",
    "nombre": "Peaje",
    "tramo": "N/A",
    "lat": -32.9349804,
    "lng": -71.2883614,
    "km": 0,
    "tipo": "toll_booth",
    "sentido": "",
    "tags": {
      "barrier": "toll_booth"
    },
    "autopista": "Peajes de Chile",
    "color": "#38A169"
  },
  {
    "id": "node/314200644",
    "nombre": "Peaje San José",
    "tramo": "N/A",
    "lat": -33.2700796,
    "lng": -70.7354601,
    "km": 0,
    "tipo": "toll_booth",
    "sentido": "",
    "tags": {
      "barrier": "toll_booth",
      "fee": "800",
      "name": "Peaje San José"
    },
    "autopista": "Peajes de Chile",
    "color": "#38A169"
  },
  {
    "id": "node/314508313",
    "nombre": "Peaje",
    "tramo": "N/A",
    "lat": -34.0376183,
    "lng": -70.7059143,
    "km": 0,
    "tipo": "toll_booth",
    "sentido": "",
    "tags": {
      "barrier": "toll_booth"
    },
    "autopista": "Peajes de Chile",
    "color": "#38A169"
  },
  {
    "id": "node/315997443",
    "nombre": "Peaje Llay Llay",
    "tramo": "N/A",
    "lat": -32.8437626,
    "lng": -70.9891887,
    "km": 0,
    "tipo": "toll_booth",
    "sentido": "",
    "tags": {
      "barrier": "toll_booth",
      "name": "Peaje Llay Llay"
    },
    "autopista": "Peajes de Chile",
    "color": "#38A169"
  },
  {
    "id": "node/315997453",
    "nombre": "Peaje Llay Llay",
    "tramo": "N/A",
    "lat": -32.8438425,
    "lng": -70.9892257,
    "km": 0,
    "tipo": "toll_booth",
    "sentido": "",
    "tags": {
      "barrier": "toll_booth",
      "name": "Peaje Llay Llay"
    },
    "autopista": "Peajes de Chile",
    "color": "#38A169"
  },
  {
    "id": "node/323201402",
    "nombre": "Peaje Troncal Agua Amarilla",
    "tramo": "N/A",
    "lat": -36.7299896,
    "lng": -72.8602089,
    "km": 0,
    "tipo": "toll_booth",
    "sentido": "",
    "tags": {
      "barrier": "toll_booth",
      "charge": "4300 CLP",
      "currency:CLP": "yes",
      "name": "Peaje Troncal Agua Amarilla",
      "payment:cash": "yes"
    },
    "autopista": "Peajes de Chile",
    "color": "#38A169"
  },
  {
    "id": "node/323555648",
    "nombre": "Peaje Ramal Alessandri",
    "tramo": "N/A",
    "lat": -36.7693196,
    "lng": -73.0506988,
    "km": 0,
    "tipo": "toll_booth",
    "sentido": "",
    "tags": {
      "barrier": "toll_booth",
      "name": "Peaje Ramal Alessandri"
    },
    "autopista": "Peajes de Chile",
    "color": "#38A169"
  },
  {
    "id": "node/327686761",
    "nombre": "Peaje Las Maicas",
    "tramo": "N/A",
    "lat": -37.8064228,
    "lng": -72.3310253,
    "km": 0,
    "tipo": "toll_booth",
    "sentido": "",
    "tags": {
      "barrier": "toll_booth",
      "name": "Peaje Las Maicas"
    },
    "autopista": "Peajes de Chile",
    "color": "#38A169"
  },
  {
    "id": "node/327686771",
    "nombre": "Peaje Las Maicas",
    "tramo": "N/A",
    "lat": -37.8066414,
    "lng": -72.3307601,
    "km": 0,
    "tipo": "toll_booth",
    "sentido": "",
    "tags": {
      "barrier": "toll_booth",
      "name": "Peaje Las Maicas"
    },
    "autopista": "Peajes de Chile",
    "color": "#38A169"
  },
  {
    "id": "node/327784037",
    "nombre": "Troncal Quepe",
    "tramo": "N/A",
    "lat": -38.9157453,
    "lng": -72.624257,
    "km": 0,
    "tipo": "toll_booth",
    "sentido": "",
    "tags": {
      "barrier": "toll_booth",
      "name": "Troncal Quepe"
    },
    "autopista": "Peajes de Chile",
    "color": "#38A169"
  },
  {
    "id": "node/327802632",
    "nombre": "Púa",
    "tramo": "N/A",
    "lat": -38.3628243,
    "lng": -72.3858908,
    "km": 0,
    "tipo": "toll_booth",
    "sentido": "",
    "tags": {
      "barrier": "toll_booth",
      "name": "Púa"
    },
    "autopista": "Peajes de Chile",
    "color": "#38A169"
  },
  {
    "id": "node/327815169",
    "nombre": "Peaje Santa Clara",
    "tramo": "N/A",
    "lat": -36.9092861,
    "lng": -72.3423701,
    "km": 0,
    "tipo": "toll_booth",
    "sentido": "",
    "tags": {
      "barrier": "toll_booth",
      "name": "Peaje Santa Clara"
    },
    "autopista": "Peajes de Chile",
    "color": "#38A169"
  },
  {
    "id": "node/327815183",
    "nombre": "Peaje Santa Clara",
    "tramo": "N/A",
    "lat": -36.9093532,
    "lng": -72.3419253,
    "km": 0,
    "tipo": "toll_booth",
    "sentido": "",
    "tags": {
      "barrier": "toll_booth",
      "name": "Peaje Santa Clara"
    },
    "autopista": "Peajes de Chile",
    "color": "#38A169"
  },
  {
    "id": "node/330465315",
    "nombre": "Estación de Peaje Vichuloma",
    "tramo": "N/A",
    "lat": -18.0183126,
    "lng": -67.0310208,
    "km": 0,
    "tipo": "toll_booth",
    "sentido": "",
    "tags": {
      "barrier": "toll_booth",
      "currency:BOB": "yes",
      "name": "Estación de Peaje Vichuloma",
      "opening_hours": "24/7",
      "operator": "Vías Bolivia",
      "operator:short": "VB",
      "operator:type": "public",
      "payment:cash": "yes",
      "website": "https://www.viasbolivia.gob.bo/"
    },
    "autopista": "Peajes de Chile",
    "color": "#38A169"
  },
  {
    "id": "node/335639289",
    "nombre": "Peaje",
    "tramo": "N/A",
    "lat": -33.0007885,
    "lng": -70.6872448,
    "km": 0,
    "tipo": "toll_booth",
    "sentido": "",
    "tags": {
      "barrier": "toll_booth",
      "official_name": "Cruce Ruta 70 (Santiago) - Cruce Ruta 60 CH (Los Andes), Sector: Túnel Chacabuco - Cruce Ruta 60 CH (Los Andes)"
    },
    "autopista": "Peajes de Chile",
    "color": "#38A169"
  },
  {
    "id": "node/380049058",
    "nombre": "Peaje",
    "tramo": "N/A",
    "lat": -38.664489,
    "lng": -72.4887747,
    "km": 0,
    "tipo": "toll_booth",
    "sentido": "",
    "tags": {
      "barrier": "toll_booth"
    },
    "autopista": "Peajes de Chile",
    "color": "#38A169"
  },
  {
    "id": "node/380161463",
    "nombre": "Peaje Lateral Licanco",
    "tramo": "N/A",
    "lat": -38.7823848,
    "lng": -72.6116859,
    "km": 0,
    "tipo": "toll_booth",
    "sentido": "",
    "tags": {
      "barrier": "toll_booth",
      "name": "Peaje Lateral Licanco"
    },
    "autopista": "Peajes de Chile",
    "color": "#38A169"
  },
  {
    "id": "node/380261025",
    "nombre": "Peaje",
    "tramo": "N/A",
    "lat": -34.2365624,
    "lng": -70.7921531,
    "km": 0,
    "tipo": "toll_booth",
    "sentido": "",
    "tags": {
      "barrier": "toll_booth"
    },
    "autopista": "Peajes de Chile",
    "color": "#38A169"
  },
  {
    "id": "node/411093652",
    "nombre": "Peaje",
    "tramo": "N/A",
    "lat": -32.9721136,
    "lng": -71.3009553,
    "km": 0,
    "tipo": "toll_booth",
    "sentido": "",
    "tags": {
      "barrier": "toll_booth"
    },
    "autopista": "Peajes de Chile",
    "color": "#38A169"
  },
  {
    "id": "node/497147664",
    "nombre": "Estación de Peaje Huayllani",
    "tramo": "N/A",
    "lat": -17.3962781,
    "lng": -66.0569032,
    "km": 0,
    "tipo": "toll_booth",
    "sentido": "",
    "tags": {
      "barrier": "toll_booth",
      "bicycle": "no",
      "currency:BOB": "yes",
      "motorcycle": "no",
      "name": "Estación de Peaje Huayllani",
      "opening_hours": "24/7",
      "operator": "Vías Bolivia",
      "operator:short": "VB",
      "operator:type": "public",
      "payment:cash": "yes",
      "website": "https://www.viasbolivia.gob.bo/"
    },
    "autopista": "Peajes de Chile",
    "color": "#38A169"
  },
  {
    "id": "node/527998360",
    "nombre": "Peaje",
    "tramo": "N/A",
    "lat": -33.6047726,
    "lng": -70.6038751,
    "km": 0,
    "tipo": "toll_booth",
    "sentido": "",
    "tags": {
      "barrier": "toll_booth",
      "ref": "Tocornal Oriente"
    },
    "autopista": "Peajes de Chile",
    "color": "#38A169"
  },
  {
    "id": "node/528012214",
    "nombre": "Peaje Gabriela Poniente",
    "tramo": "N/A",
    "lat": -33.5819958,
    "lng": -70.6112359,
    "km": 0,
    "tipo": "toll_booth",
    "sentido": "",
    "tags": {
      "barrier": "toll_booth",
      "bicycle": "no",
      "foot": "no",
      "horse": "no",
      "motor_vehicle": "yes",
      "name": "Peaje Gabriela Poniente"
    },
    "autopista": "Peajes de Chile",
    "color": "#38A169"
  },
  {
    "id": "node/528012247",
    "nombre": "Peaje Gabriela Oriente",
    "tramo": "N/A",
    "lat": -33.5816991,
    "lng": -70.6102952,
    "km": 0,
    "tipo": "toll_booth",
    "sentido": "",
    "tags": {
      "barrier": "toll_booth",
      "name": "Peaje Gabriela Oriente"
    },
    "autopista": "Peajes de Chile",
    "color": "#38A169"
  },
  {
    "id": "node/537382069",
    "nombre": "Reten Challapata",
    "tramo": "N/A",
    "lat": -18.8902314,
    "lng": -66.7814616,
    "km": 0,
    "tipo": "toll_booth",
    "sentido": "",
    "tags": {
      "alt_name": "Peaje Challapata",
      "barrier": "toll_booth",
      "currency:BOB": "yes",
      "name": "Reten Challapata",
      "payment:cash": "yes",
      "payment:coins": "yes"
    },
    "autopista": "Peajes de Chile",
    "color": "#38A169"
  },
  {
    "id": "node/538935918",
    "nombre": "Peaje",
    "tramo": "N/A",
    "lat": -36.6583504,
    "lng": -72.4577094,
    "km": 0,
    "tipo": "toll_booth",
    "sentido": "",
    "tags": {
      "barrier": "toll_booth"
    },
    "autopista": "Peajes de Chile",
    "color": "#38A169"
  },
  {
    "id": "node/538935961",
    "nombre": "Peaje",
    "tramo": "N/A",
    "lat": -36.6597225,
    "lng": -72.4572965,
    "km": 0,
    "tipo": "toll_booth",
    "sentido": "",
    "tags": {
      "barrier": "toll_booth"
    },
    "autopista": "Peajes de Chile",
    "color": "#38A169"
  },
  {
    "id": "node/539094675",
    "nombre": "Troncal Quepe",
    "tramo": "N/A",
    "lat": -38.9157752,
    "lng": -72.624017,
    "km": 0,
    "tipo": "toll_booth",
    "sentido": "",
    "tags": {
      "barrier": "toll_booth",
      "name": "Troncal Quepe"
    },
    "autopista": "Peajes de Chile",
    "color": "#38A169"
  },
  {
    "id": "node/566750888",
    "nombre": "Peaje",
    "tramo": "N/A",
    "lat": -34.8837846,
    "lng": -71.150528,
    "km": 0,
    "tipo": "toll_booth",
    "sentido": "",
    "tags": {
      "barrier": "toll_booth"
    },
    "autopista": "Peajes de Chile",
    "color": "#38A169"
  },
  {
    "id": "node/610664957",
    "nombre": "Peaje",
    "tramo": "N/A",
    "lat": -41.3198018,
    "lng": -73.0076075,
    "km": 0,
    "tipo": "toll_booth",
    "sentido": "",
    "tags": {
      "barrier": "toll_booth"
    },
    "autopista": "Peajes de Chile",
    "color": "#38A169"
  },
  {
    "id": "node/614532084",
    "nombre": "Peaje",
    "tramo": "N/A",
    "lat": -35.6336763,
    "lng": -71.7066452,
    "km": 0,
    "tipo": "toll_booth",
    "sentido": "",
    "tags": {
      "barrier": "toll_booth"
    },
    "autopista": "Peajes de Chile",
    "color": "#38A169"
  },
  {
    "id": "node/614533211",
    "nombre": "Peaje",
    "tramo": "N/A",
    "lat": -35.6009382,
    "lng": -71.7063951,
    "km": 0,
    "tipo": "toll_booth",
    "sentido": "",
    "tags": {
      "barrier": "toll_booth"
    },
    "autopista": "Peajes de Chile",
    "color": "#38A169"
  },
  {
    "id": "node/636161562",
    "nombre": "Peaje",
    "tramo": "N/A",
    "lat": -36.1572351,
    "lng": -71.8138896,
    "km": 0,
    "tipo": "toll_booth",
    "sentido": "",
    "tags": {
      "barrier": "toll_booth"
    },
    "autopista": "Peajes de Chile",
    "color": "#38A169"
  },
  {
    "id": "node/664173553",
    "nombre": "Peaje",
    "tramo": "N/A",
    "lat": -35.5212825,
    "lng": -71.6767066,
    "km": 0,
    "tipo": "toll_booth",
    "sentido": "",
    "tags": {
      "barrier": "toll_booth"
    },
    "autopista": "Peajes de Chile",
    "color": "#38A169"
  },
  {
    "id": "node/687024108",
    "nombre": "Peaje",
    "tramo": "N/A",
    "lat": -33.6050323,
    "lng": -70.6046629,
    "km": 0,
    "tipo": "toll_booth",
    "sentido": "",
    "tags": {
      "barrier": "toll_booth",
      "ref": "Tocornal Poniente"
    },
    "autopista": "Peajes de Chile",
    "color": "#38A169"
  },
  {
    "id": "node/694519307",
    "nombre": "Peaje",
    "tramo": "N/A",
    "lat": -34.1809198,
    "lng": -70.7906475,
    "km": 0,
    "tipo": "toll_booth",
    "sentido": "",
    "tags": {
      "barrier": "toll_booth"
    },
    "autopista": "Peajes de Chile",
    "color": "#38A169"
  },
  {
    "id": "node/700672458",
    "nombre": "Peaje",
    "tramo": "N/A",
    "lat": -34.4655636,
    "lng": -70.8983521,
    "km": 0,
    "tipo": "toll_booth",
    "sentido": "",
    "tags": {
      "barrier": "toll_booth",
      "currency:CLP": "yes",
      "foot": "yes",
      "motor_vehicle": "yes",
      "opening_hours": "24/7",
      "payment:cash": "yes",
      "payment:coins": "yes"
    },
    "autopista": "Peajes de Chile",
    "color": "#38A169"
  },
  {
    "id": "node/700672595",
    "nombre": "Peaje",
    "tramo": "N/A",
    "lat": -34.4659766,
    "lng": -70.8971471,
    "km": 0,
    "tipo": "toll_booth",
    "sentido": "",
    "tags": {
      "barrier": "toll_booth",
      "currency:CLP": "yes",
      "motor_vehicle": "yes",
      "opening_hours": "24/7",
      "payment:cash": "yes",
      "payment:coins": "yes"
    },
    "autopista": "Peajes de Chile",
    "color": "#38A169"
  },
  {
    "id": "node/726965010",
    "nombre": "Peaje",
    "tramo": "N/A",
    "lat": -34.5528041,
    "lng": -70.9617953,
    "km": 0,
    "tipo": "toll_booth",
    "sentido": "",
    "tags": {
      "barrier": "toll_booth"
    },
    "autopista": "Peajes de Chile",
    "color": "#38A169"
  },
  {
    "id": "node/726965123",
    "nombre": "Peaje",
    "tramo": "N/A",
    "lat": -34.5743842,
    "lng": -70.9727472,
    "km": 0,
    "tipo": "toll_booth",
    "sentido": "",
    "tags": {
      "barrier": "toll_booth"
    },
    "autopista": "Peajes de Chile",
    "color": "#38A169"
  },
  {
    "id": "node/726966165",
    "nombre": "Peaje",
    "tramo": "N/A",
    "lat": -34.5517005,
    "lng": -70.9614342,
    "km": 0,
    "tipo": "toll_booth",
    "sentido": "",
    "tags": {
      "barrier": "toll_booth",
      "fee": "yes"
    },
    "autopista": "Peajes de Chile",
    "color": "#38A169"
  },
  {
    "id": "node/800117192",
    "nombre": "Peaje",
    "tramo": "N/A",
    "lat": -41.2767467,
    "lng": -73.0073612,
    "km": 0,
    "tipo": "toll_booth",
    "sentido": "",
    "tags": {
      "barrier": "toll_booth"
    },
    "autopista": "Peajes de Chile",
    "color": "#38A169"
  },
  {
    "id": "node/801247129",
    "nombre": "Peaje",
    "tramo": "N/A",
    "lat": -41.2562588,
    "lng": -73.0204609,
    "km": 0,
    "tipo": "toll_booth",
    "sentido": "",
    "tags": {
      "barrier": "toll_booth"
    },
    "autopista": "Peajes de Chile",
    "color": "#38A169"
  },
  {
    "id": "node/801247271",
    "nombre": "Peaje",
    "tramo": "N/A",
    "lat": -41.2547001,
    "lng": -73.0232772,
    "km": 0,
    "tipo": "toll_booth",
    "sentido": "",
    "tags": {
      "barrier": "toll_booth"
    },
    "autopista": "Peajes de Chile",
    "color": "#38A169"
  },
  {
    "id": "node/801260694",
    "nombre": "Peaje",
    "tramo": "N/A",
    "lat": -41.2721763,
    "lng": -73.0074254,
    "km": 0,
    "tipo": "toll_booth",
    "sentido": "",
    "tags": {
      "barrier": "toll_booth"
    },
    "autopista": "Peajes de Chile",
    "color": "#38A169"
  },
  {
    "id": "node/801676737",
    "nombre": "Peaje",
    "tramo": "N/A",
    "lat": -41.2193111,
    "lng": -73.0525572,
    "km": 0,
    "tipo": "toll_booth",
    "sentido": "",
    "tags": {
      "barrier": "toll_booth"
    },
    "autopista": "Peajes de Chile",
    "color": "#38A169"
  },
  {
    "id": "node/804034814",
    "nombre": "Peaje",
    "tramo": "N/A",
    "lat": -38.9912933,
    "lng": -72.6468763,
    "km": 0,
    "tipo": "toll_booth",
    "sentido": "",
    "tags": {
      "barrier": "toll_booth"
    },
    "autopista": "Peajes de Chile",
    "color": "#38A169"
  },
  {
    "id": "node/812339606",
    "nombre": "Peaje",
    "tramo": "N/A",
    "lat": -41.4384969,
    "lng": -72.9564093,
    "km": 0,
    "tipo": "toll_booth",
    "sentido": "",
    "tags": {
      "barrier": "toll_booth"
    },
    "autopista": "Peajes de Chile",
    "color": "#38A169"
  },
  {
    "id": "node/812366998",
    "nombre": "Peaje Puerto Varas",
    "tramo": "N/A",
    "lat": -41.3334347,
    "lng": -72.9878258,
    "km": 0,
    "tipo": "toll_booth",
    "sentido": "",
    "tags": {
      "barrier": "toll_booth",
      "name": "Peaje Puerto Varas",
      "operator": "National Government"
    },
    "autopista": "Peajes de Chile",
    "color": "#38A169"
  },
  {
    "id": "node/829090664",
    "nombre": "Peaje",
    "tramo": "N/A",
    "lat": -19.6965876,
    "lng": -66.7781824,
    "km": 0,
    "tipo": "toll_booth",
    "sentido": "",
    "tags": {
      "barrier": "toll_booth"
    },
    "autopista": "Peajes de Chile",
    "color": "#38A169"
  },
  {
    "id": "node/829136599",
    "nombre": "Reten de Santiago de Huari",
    "tramo": "N/A",
    "lat": -19.0052803,
    "lng": -66.7759733,
    "km": 0,
    "tipo": "toll_booth",
    "sentido": "",
    "tags": {
      "barrier": "toll_booth",
      "name": "Reten de Santiago de Huari"
    },
    "autopista": "Peajes de Chile",
    "color": "#38A169"
  },
  {
    "id": "node/889424786",
    "nombre": "Peaje Variante Melipilla",
    "tramo": "N/A",
    "lat": -33.6733561,
    "lng": -71.1676366,
    "km": 0,
    "tipo": "toll_booth",
    "sentido": "",
    "tags": {
      "barrier": "toll_booth",
      "name": "Peaje Variante Melipilla"
    },
    "autopista": "Peajes de Chile",
    "color": "#38A169"
  },
  {
    "id": "node/939364985",
    "nombre": "Peaje",
    "tramo": "N/A",
    "lat": -38.7751498,
    "lng": -72.5812827,
    "km": 0,
    "tipo": "toll_booth",
    "sentido": "",
    "tags": {
      "barrier": "toll_booth"
    },
    "autopista": "Peajes de Chile",
    "color": "#38A169"
  },
  {
    "id": "node/959025845",
    "nombre": "Peaje Lateral Guanaqueros",
    "tramo": "N/A",
    "lat": -30.19738,
    "lng": -71.3879612,
    "km": 0,
    "tipo": "toll_booth",
    "sentido": "",
    "tags": {
      "barrier": "toll_booth",
      "lanes": "2",
      "name": "Peaje Lateral Guanaqueros"
    },
    "autopista": "Peajes de Chile",
    "color": "#38A169"
  },
  {
    "id": "node/959025978",
    "nombre": "Peaje Lateral Tongoy Acceso Sur",
    "tramo": "N/A",
    "lat": -30.351708,
    "lng": -71.4323314,
    "km": 0,
    "tipo": "toll_booth",
    "sentido": "",
    "tags": {
      "barrier": "toll_booth",
      "name": "Peaje Lateral Tongoy Acceso Sur"
    },
    "autopista": "Peajes de Chile",
    "color": "#38A169"
  },
  {
    "id": "node/960933812",
    "nombre": "Peaje",
    "tramo": "N/A",
    "lat": -40.087391,
    "lng": -72.8646588,
    "km": 0,
    "tipo": "toll_booth",
    "sentido": "",
    "tags": {
      "barrier": "toll_booth"
    },
    "autopista": "Peajes de Chile",
    "color": "#38A169"
  },
  {
    "id": "node/967459410",
    "nombre": "Peaje",
    "tramo": "N/A",
    "lat": -35.4893656,
    "lng": -71.6592708,
    "km": 0,
    "tipo": "toll_booth",
    "sentido": "",
    "tags": {
      "barrier": "toll_booth"
    },
    "autopista": "Peajes de Chile",
    "color": "#38A169"
  },
  {
    "id": "node/968141993",
    "nombre": "Peaje",
    "tramo": "N/A",
    "lat": -36.7229958,
    "lng": -72.2744063,
    "km": 0,
    "tipo": "toll_booth",
    "sentido": "",
    "tags": {
      "barrier": "toll_booth"
    },
    "autopista": "Peajes de Chile",
    "color": "#38A169"
  },
  {
    "id": "node/979045538",
    "nombre": "Peaje",
    "tramo": "N/A",
    "lat": -39.3588348,
    "lng": -72.639728,
    "km": 0,
    "tipo": "toll_booth",
    "sentido": "",
    "tags": {
      "barrier": "toll_booth"
    },
    "autopista": "Peajes de Chile",
    "color": "#38A169"
  },
  {
    "id": "node/985870804",
    "nombre": "Peaje Lateral Cabrero",
    "tramo": "N/A",
    "lat": -37.0440971,
    "lng": -72.3716281,
    "km": 0,
    "tipo": "toll_booth",
    "sentido": "",
    "tags": {
      "barrier": "toll_booth",
      "name": "Peaje Lateral Cabrero"
    },
    "autopista": "Peajes de Chile",
    "color": "#38A169"
  },
  {
    "id": "node/1001230974",
    "nombre": "Peaje",
    "tramo": "N/A",
    "lat": -30.7074816,
    "lng": -71.4888892,
    "km": 0,
    "tipo": "toll_booth",
    "sentido": "",
    "tags": {
      "barrier": "toll_booth"
    },
    "autopista": "Peajes de Chile",
    "color": "#38A169"
  },
  {
    "id": "node/1021788130",
    "nombre": "Toll Booth Frutillar",
    "tramo": "N/A",
    "lat": -41.1200835,
    "lng": -73.0625585,
    "km": 0,
    "tipo": "toll_booth",
    "sentido": "",
    "tags": {
      "barrier": "toll_booth",
      "name": "Toll Booth Frutillar",
      "operator": "Peaje Lateral Frutillar"
    },
    "autopista": "Peajes de Chile",
    "color": "#38A169"
  },
  {
    "id": "node/1028381887",
    "nombre": "Peaje",
    "tramo": "N/A",
    "lat": -37.5315875,
    "lng": -72.3250597,
    "km": 0,
    "tipo": "toll_booth",
    "sentido": "",
    "tags": {
      "barrier": "toll_booth"
    },
    "autopista": "Peajes de Chile",
    "color": "#38A169"
  },
  {
    "id": "node/1028608420",
    "nombre": "Peaje Lateral Los Ángeles",
    "tramo": "N/A",
    "lat": -37.4859742,
    "lng": -72.4041955,
    "km": 0,
    "tipo": "toll_booth",
    "sentido": "",
    "tags": {
      "barrier": "toll_booth",
      "name": "Peaje Lateral Los Ángeles"
    },